id,country,iso3,gwno,year,geo_id,geolocation,level,adm1,adm2,adm3,location,historical,hist_country,disastertype,disasterno,latitude,longitude
"1099",Chile,CHL,"155","1995","3687",Chanaral,"2",Atacama,Chanaral,Chanaral,Chanaral,"0",NA,earthquake,1995-0171,"-26.22121912","-69.49489839"
"1099",Chile,CHL,"155","1995","3709",Diego De Almagro,"3",Atacama,Chanaral,Diego De Almagro,Diego de Almagro,"0",NA,earthquake,1995-0171,"-26.18831384","-69.25727705"
"1115",Chile,CHL,"155","2005","3683",Camina,"3",Tarapaca,Iquique,Camina,Camina,"0",NA,earthquake,2005-0321,"-19.25667137","-69.46401265"
"1115",Chile,CHL,"155","2005","3716",Iquique,"3",Tarapaca,Iquique,Iquique,Alto Hospicio,"0",NA,earthquake,2005-0321,"-20.13895983","-69.40659999"
"1115",Chile,CHL,"155","2005","3742",Pica,"3",Tarapaca,Iquique,Pica,Pica,"0",NA,earthquake,2005-0321,"-20.48666314","-68.92985029"
"1115",Chile,CHL,"155","2005","3743",Pozo Almonte,"3",Tarapaca,Iquique,Pozo Almonte,Pozo Almonte,"0",NA,earthquake,2005-0321,"-20.74559142","-69.53431967"
"1120",Chile,CHL,"155","2007","3726",Maria Elena,"3",Antofagasta,Tocopilla,Maria Elena,Maria Elena,"0",NA,earthquake,2007-0587,"-22.05079509","-69.42513163"
"2013",Ecuador,ECU,"130","1996","6076",La Merced,"3",Pichincha,Quito,La Merced,La Merced,"0",NA,earthquake,1996-0062,"-0.287552725","-78.38982644"
"2013",Ecuador,ECU,"130","1996","6130",San Antonio,"3",Pichincha,Quito,San Antonio,San Antonio,"0",NA,earthquake,1996-0062,"-2.591325968","-79.22447096"
"2015",Ecuador,ECU,"130","1998","6009",Bahia De Caraquez,"3",Manabi,Sucre,Bahia De Caraquez,Bahia de Caraquez,"0",NA,earthquake,1998-0353,"-0.685155661","-80.40157971"
"2015",Ecuador,ECU,"130","1998","6022",Charapoto,"3",Manabi,Sucre,Charapoto,Charapoto,"0",NA,earthquake,1998-0353,"-0.781936823","-80.44364531"
"2374",Greece,GRC,"350","1968","6940",Agios Efstratios,"3",Aegean,North Aegean,Agios Efstratios,Agios Efstratios,"0",NA,earthquake,1968-0032,"39.51423464","25.00682689"
"2374",Greece,GRC,"350","1968","6989",Lemnos,"3",Aegean,North Aegean,Lemnos,Limnos,"0",NA,earthquake,1968-0032,"39.91440852","25.2255903"
"2391",Greece,GRC,"350","1995","6974",Grevena,"3",Epirus And Western Macedonia,West Macedonia,Grevena,Grevena-Kozani,"0",NA,earthquake,1995-0085,"40.04281357","21.36192821"
"2391",Greece,GRC,"350","1995","6985",Kozani,"3",Epirus And Western Macedonia,West Macedonia,Kozani,Kozani,"0",NA,earthquake,1995-0085,"40.30928976","21.83193968"
"2396",Greece,GRC,"350","1999","6971",Elefsina,"3",Attica,Attica,Elefsina,Elefsina,"0",NA,earthquake,1999-0302,"38.0818383","23.53245393"
"2396",Greece,GRC,"350","1999","7010",Peristeri,"3",Attica,Attica,Peristeri,Peristeri,"0",NA,earthquake,1999-0302,"38.01188262","23.68833905"
"2396",Greece,GRC,"350","1999","7011",Petroupoli,"3",Attica,Attica,Petroupoli,Petroupoli,"0",NA,earthquake,1999-0302,"38.04160401","23.6736876"
"2397",Greece,GRC,"350","2000","6975",Ioannina,"3",Epirus And Western Macedonia,Epirus,Ioannina,Michalitsi,"0",NA,earthquake,2000-0303,"39.64110212","20.88226481"
"2397",Greece,GRC,"350","2000","7015",Preveza,"3",Epirus And Western Macedonia,Epirus,Preveza,Mitikas,"0",NA,earthquake,2000-0303,"39.14468957","20.70319507"
"2552",Haiti,HTI,"41","2010","7317",Kenscoff,"3",Ouest,Port-au-Prince,Kenscoff,Kenscoff,"0",NA,earthquake,2010-0017,"18.40459993","-72.29065501"
"4421",Myanmar,MMR,"775","2012","13969",Mogok,"3",Mandalay,Pyin-Oo-Lwin,Mogok,Mogok,"0",NA,earthquake,2012-0417,"22.907203","96.44764414"
"4421",Myanmar,MMR,"775","2012","14018",Singu,"3",Mandalay,Pyin-Oo-Lwin,Singu,Singu,"0",NA,earthquake,2012-0417,"22.55591955","96.11568647"
"4421",Myanmar,MMR,"775","2012","14030",Thabeikkyin,"3",Mandalay,Pyin-Oo-Lwin,Thabeikkyin,Thabeikkyin,"0",NA,earthquake,2012-0417,"23.16641848","96.09296991"
"4448",Nepal,NPL,"790","1988","14160",Dhankuta,"3",East,Koshi,Dhankuta,Dhankuta,"0",NA,earthquake,1988-0383,"26.99110971","87.33355772"
"4448",Nepal,NPL,"790","1988","14190",Ilam,"3",East,Mechi,Ilam,Ilam,"0",NA,earthquake,1988-0383,"26.8810675","87.90348445"
"4448",Nepal,NPL,"790","1988","14264",Morang,"3",East,Koshi,Morang,Morang,"0",NA,earthquake,1988-0383,"26.61669552","87.47181543"
"4448",Nepal,NPL,"790","1988","14292",Panchthar,"3",East,Mechi,Panchthar,Panchthar,"0",NA,earthquake,1988-0383,"27.11337157","87.77651847"
"4448",Nepal,NPL,"790","1988","14395",Terhathum,"3",East,Koshi,Terhathum,Terathum,"0",NA,earthquake,1988-0383,"27.15437248","87.55107653"
"4470",Nepal,NPL,"790","2011","14130",Bhaktapur,"3",Central,Bagmati,Bhaktapur,Bhaktapur,"0",NA,earthquake,2011-0351,"27.67646531","85.44283138"
"4470",Nepal,NPL,"790","2011","14132",Bhojpur,"3",East,Koshi,Bhojpur,Bhojpur,"0",NA,earthquake,2011-0351,"27.17952946","87.06865533"
"4470",Nepal,NPL,"790","2011","14161",Dhankuta,"3",East,Koshi,Dhankuta,Dhankuta,"0",NA,earthquake,2011-0351,"26.99110971","87.33355772"
"4470",Nepal,NPL,"790","2011","14170",Dolakha,"3",Central,Janakpur,Dolakha,Dolakha,"0",NA,earthquake,2011-0351,"27.78583782","86.20023138"
"4470",Nepal,NPL,"790","2011","14195",Ilam,"3",East,Mechi,Ilam,Ilam,"0",NA,earthquake,2011-0351,"26.8810675","87.90348445"
"4470",Nepal,NPL,"790","2011","14208",Jhapa,"3",East,Mechi,Jhapa,Jhapa,"0",NA,earthquake,2011-0351,"26.58512704","87.91632788"
"4470",Nepal,NPL,"790","2011","14232",Kathmandu,"3",Central,Bagmati,Kathmandu,Kathmandu,"0",NA,earthquake,2011-0351,"27.72700863","85.34688669"
"4470",Nepal,NPL,"790","2011","14239",Khotang,"3",East,Sagarmatha,Khotang,Khotang,"0",NA,earthquake,2011-0351,"27.167664","86.79012995"
"4470",Nepal,NPL,"790","2011","14240",Lalitpur,"3",Central,Bagmati,Lalitpur,Lalitpur,"0",NA,earthquake,2011-0351,"27.53712611","85.34406563"
"4470",Nepal,NPL,"790","2011","14295",Panchthar,"3",East,Mechi,Panchthar,Panchthar,"0",NA,earthquake,2011-0351,"27.11337157","87.77651847"
"4470",Nepal,NPL,"790","2011","14307",Ramechhap,"3",Central,Janakpur,Ramechhap,Ramechhap,"0",NA,earthquake,2011-0351,"27.51252127","86.17961506"
"4470",Nepal,NPL,"790","2011","14336",Sankhuwasabha,"3",East,Koshi,Sankhuwasabha,Sankhuwasabha,"0",NA,earthquake,2011-0351,"27.58113971","87.28099624"
"4470",Nepal,NPL,"790","2011","14356",Sindhupalchok,"3",Central,Bagmati,Sindhupalchok,Sindhupalchok,"0",NA,earthquake,2011-0351,"27.91463216","85.74159439"
"4470",Nepal,NPL,"790","2011","14368",Solukhumbu,"3",East,Sagarmatha,Solukhumbu,Solukhambu,"0",NA,earthquake,2011-0351,"27.71000485","86.72345995"
"4470",Nepal,NPL,"790","2011","14377",Sunsari,"3",East,Koshi,Sunsari,Sunsari,"0",NA,earthquake,2011-0351,"26.65168012","87.17244306"
"4470",Nepal,NPL,"790","2011","14393",Taplejung,"3",East,Mechi,Taplejung,Taplejung,"0",NA,earthquake,2011-0351,"27.58005501","87.82388638"
"4470",Nepal,NPL,"790","2011","14397",Terhathum,"3",East,Koshi,Terhathum,Terhathum,"0",NA,earthquake,2011-0351,"27.15437248","87.55107653"
"4470",Nepal,NPL,"790","2011","14402",Udayapur,"3",East,Sagarmatha,Udayapur,Udayapur,"0",NA,earthquake,2011-0351,"26.90192818","86.68457262"
"4478",Nepal,NPL,"790","2015","14159",Dhading,"3",Central,Bagmati,Dhading,Dhading,"0",NA,earthquake,2015-0144,"27.94894272","84.95825539"
"4478",Nepal,NPL,"790","2015","14171",Dolakha,"3",Central,Janakpur,Dolakha,Dolakha,"0",NA,earthquake,2015-0144,"27.78583782","86.20023138"
"4478",Nepal,NPL,"790","2015","14234",Kathmandu,"3",Central,Bagmati,Kathmandu,Kathmandu,"0",NA,earthquake,2015-0144,"27.72700863","85.34688669"
"4478",Nepal,NPL,"790","2015","14236",Kavrepalanchok,"3",Central,Bagmati,Kavrepalanchok,Kavre,"0",NA,earthquake,2015-0144,"27.53579501","85.62143163"
"4478",Nepal,NPL,"790","2015","14242",Lalitpur,"3",Central,Bagmati,Lalitpur,Lalitpur,"0",NA,earthquake,2015-0144,"27.53712611","85.34406563"
"4478",Nepal,NPL,"790","2015","14285",Nuwakot,"3",Central,Bagmati,Nuwakot,Nuwakot,"0",NA,earthquake,2015-0144,"27.91433609","85.23506275"
"4478",Nepal,NPL,"790","2015","14308",Ramechhap,"3",Central,Janakpur,Ramechhap,Ramechhap,"0",NA,earthquake,2015-0144,"27.51252127","86.17961506"
"4478",Nepal,NPL,"790","2015","14315",Rasuwa,"3",Central,Bagmati,Rasuwa,Rasuwa,"0",NA,earthquake,2015-0144,"28.18475101","85.41610352"
"4478",Nepal,NPL,"790","2015","14358",Sindhupalchok,"3",Central,Bagmati,Sindhupalchok,Sindhupalchowk,"0",NA,earthquake,2015-0144,"27.91463216","85.74159439"
"4479",Nepal,NPL,"790","2015","14359",Sindhupalchok,"3",Central,Bagmati,Sindhupalchok,Sindhupalchowk,"0",NA,earthquake,2015-0175,"27.91463216","85.74159439"
"4715",Pakistan,PAK,"770","2001","15108",Mithi,"3",Sind,Mirpur Khas,Mithi,Mithi,"0",NA,earthquake,2001-0033,"24.784189","70.19422706"
"4729",Pakistan,PAK,"770","2004","14980",Battagram,"3",N.W.F.P.,Hazara,Battagram,Batagram,"0",NA,earthquake,2004-0054,"34.80745965","73.14966088"
"4729",Pakistan,PAK,"770","2004","15076",Kohistan,"3",N.W.F.P.,Hazara,Kohistan,Kohistan,"0",NA,earthquake,2004-0054,"35.34881332","73.18817119"
"4729",Pakistan,PAK,"770","2004","15097",Mansehra,"3",N.W.F.P.,Hazara,Mansehra,Mansehra,"0",NA,earthquake,2004-0054,"34.7009732","73.41137116"
"4736",Pakistan,PAK,"770","2005","14929",Abbottabad,"3",N.W.F.P.,Hazara,Abbottabad,Abbottabad Tehsil,"0",NA,earthquake,2005-0575,"34.12132065","73.25301763"
"4736",Pakistan,PAK,"770","2005","14982",Battagram,"3",N.W.F.P.,Hazara,Battagram,Allai,"0",NA,earthquake,2005-0575,"34.80745965","73.14966088"
"4736",Pakistan,PAK,"770","2005","15077",Kohistan,"3",N.W.F.P.,Hazara,Kohistan,Kohistan district,"0",NA,earthquake,2005-0575,"35.34881332","73.18817119"
"4769",Pakistan,PAK,"770","2013","14932",Awaran,"3",Baluchistan,Kalat,Awaran,Awaran,"0",NA,earthquake,2013-0381,"26.2668239","65.36172789"
"4769",Pakistan,PAK,"770","2013","15023",Gwadar,"3",Baluchistan,Makran,Gwadar,Gwadar,"0",NA,earthquake,2013-0381,"25.41622635","63.167094"
"4769",Pakistan,PAK,"770","2013","15063",Kech,"3",Baluchistan,Makran,Kech,Kech,"0",NA,earthquake,2013-0381,"26.01734455","63.07480738"
"4769",Pakistan,PAK,"770","2013","15072",Khuzdar,"3",Baluchistan,Kalat,Khuzdar,Khuzdar,"0",NA,earthquake,2013-0381,"27.49908033","66.70188635"
"4769",Pakistan,PAK,"770","2013","15149",Panjgur,"3",Baluchistan,Makran,Panjgur,Panjgur,"0",NA,earthquake,2013-0381,"26.74728565","64.18793605"
"1099",Chile,CHL,"155","1995","3699",Copiapo,"3",Atacama,Copiapo,Copiapo,Copiapo,"0",NA,earthquake,1995-0171,"-27.31083434","-69.75745575"
"1115",Chile,CHL,"155","2005","3694",Colchane,"3",Tarapaca,Iquique,Colchane,Colchane,"0",NA,earthquake,2005-0321,"-19.30180115","-68.81594861"
"2396",Greece,GRC,"350","1999","6942",Athens,"3",Attica,Attica,Athens,Haidari,"0",NA,earthquake,1999-0302,"37.98627768","23.73434117"
"3439",Italy,ITA,"325","1984","10364",Assisi,"3",Umbria,Perugia,Assisi,Assisi,"0",NA,earthquake,1984-0038,"43.08711524","12.62617111"
"3439",Italy,ITA,"325","1984","10428",Gubbio,"3",Umbria,Perugia,Gubbio,Gubbio,"0",NA,earthquake,1984-0038,"43.33174618","12.54754695"
"3441",Italy,ITA,"325","1984","10354",Adrano,"3",Sicily,Catania,Adrano,Mt Etna,"0",NA,earthquake,1984-0274,"37.69573249","14.85737864"
"3441",Italy,ITA,"325","1984","10395",Catania,"3",Sicily,Catania,Catania,Catania,"0",NA,earthquake,1984-0274,"37.44306509","15.03625581"
"3468",Italy,ITA,"325","2002","10396",Catania,"3",Sicily,Catania,Catania,Catania,"0",NA,earthquake,2002-0680,"37.44306509","15.03625581"
"3468",Italy,ITA,"325","2002","10426",Giarre,"3",Sicily,Catania,Giarre,Giarre,"0",NA,earthquake,2002-0680,"37.71976193","15.1688887"
"3468",Italy,ITA,"325","2002","10497",Santa Venerina,"3",Sicily,Catania,Santa Venerina,Santa Venerina,"0",NA,earthquake,2002-0680,"37.68461043","15.14278779"
"3468",Italy,ITA,"325","2002","10560",Zafferana Etnea,"3",Sicily,Catania,Zafferana Etnea,Zafferana Etnea,"0",NA,earthquake,2002-0680,"37.71079934","15.06350598"
"3479",Italy,ITA,"325","2009","10410",Fossa,"3",Abruzzo,L'Aquila,Fossa,Fossa,"0",NA,earthquake,2009-0136,"42.3043236","13.49441292"
"3479",Italy,ITA,"325","2009","10451",Massa D' Albe,"3",Abruzzo,L'Aquila,Massa D' Albe,Massa d'Albe,"0",NA,earthquake,2009-0136,"42.12189749","13.42346092"
"3479",Italy,ITA,"325","2009","10485",Poggio Picenze,"3",Abruzzo,L'Aquila,Poggio Picenze,Poggio Picenze,"0",NA,earthquake,2009-0136,"42.31824455","13.54193551"
"3479",Italy,ITA,"325","2009","10559",Villa Sant' Angelo,"3",Abruzzo,L'Aquila,Villa Sant' Angelo,Villa San't Angelo,"0",NA,earthquake,2009-0136,"42.26642005","13.5366084"
"3485",Italy,ITA,"325","2012","10407",Finale Emilia,"3",Emilia-Romagna,Modena,Finale Emilia,Finale Emilia,"0",NA,earthquake,2012-0142,"44.85031444","11.26754673"
"3485",Italy,ITA,"325","2012","10459",Mirandola,"3",Emilia-Romagna,Modena,Mirandola,Mirandola,"0",NA,earthquake,2012-0142,"44.90819352","11.12550806"
"1099",Chile,CHL,"155","1995","3682",Caldera,"3",Atacama,Copiapo,Caldera,Caldera,"0",NA,earthquake,1995-0171,"-27.2862012","-70.71313794"
"4736",Pakistan,PAK,"770","2005","15147",Mansehra,"3",N.W.F.P.,Hazara,Mansehra,Oghi,"0",NA,earthquake,2005-0575,"34.70139943","73.41185282"
02-216,Greece,GRC,"350","2017","31273",Chios,"3",Aegean,North Aegean,Chios, Chios,"0",NA,earthquake,2017-0182,"38.40162418","26.01645711"
02-216,Greece,GRC,"350","2017","31274",Lesbos,"3",Aegean,North Aegean,Lesbos, Skala,"0",NA,earthquake,2017-0182,"39.16932619","26.24317151"
02-344,Italy,ITA,"325","2016","32072",Ussita,"3",Marche,Macerata,Ussita, Ussita ,"0",NA,earthquake,2016-0357,"42.94319527","13.16456177"
02-344,Italy,ITA,"325","2016","32074",Visso,"3",Marche,Macerata,Visso,Visso,"0",NA,earthquake,2016-0357,"42.93666077","13.05289036"
02-345,Italy,ITA,"325","2016","32078",Norcia,"3",Umbria,Perugia,Norcia,Norcia ,"0",NA,earthquake,2016-0358,"42.78750686","13.12321239"
02-347,Italy,ITA,"325","2016","32082",Posta,"3",Lazio,Rieti,Posta, Posta ,"0",NA,earthquake,2016-0313,"42.51807589","13.08189344"
02-347,Italy,ITA,"325","2016","32083",Amatrice,"3",Lazio,Rieti,Amatrice,Amatrice,"0",NA,earthquake,2016-0313,"42.62709606","13.29368687"
02-347,Italy,ITA,"325","2016","32087",Accumoli,"3",Lazio,Rieti,Accumoli, Accumoli,"0",NA,earthquake,2016-0313,"42.69616689","13.24490763"
02-348,Italy,ITA,"325","2017","32088",Castel Castagna,"3",Abruzzo,Teramo,Castel Castagna, Csatel Castagna,"0",NA,earthquake,2017-0015,"42.54235193","13.73225423"
02-348,Italy,ITA,"325","2017","32090",Capitignano,"3",Abruzzo,L'Aquila,Capitignano, Capitignano,"0",NA,earthquake,2017-0015,"42.52398289","13.30606871"
02-348,Italy,ITA,"325","2017","32092",Castiglione Messer Raimondo,"3",Abruzzo,Teramo,Castiglione Messer Raimondo, Csatigkione Messer Raimondo,"0",NA,earthquake,2017-0015,"42.52090251","13.86980652"
02-348,Italy,ITA,"325","2017","32093",Campotosto,"3",Abruzzo,L'Aquila,Campotosto, Campotosto,"0",NA,earthquake,2017-0015,"42.54988779","13.3621181"
02-348,Italy,ITA,"325","2017","32095",Montereale,"3",Abruzzo,L'Aquila,Montereale, Montereale,"0",NA,earthquake,2017-0015,"42.53114368","13.22873643"
02-348,Italy,ITA,"325","2017","32096",Avezzano,"3",Abruzzo,L'Aquila,Avezzano,Avezzano,"0",NA,earthquake,2017-0015,"42.03811279","13.44709654"
02-350,Italy,ITA,"325","2017","32117",Lacco Ameno,"3",Campania,Napoli,Lacco Ameno, Lacco Ameno ,"0",NA,earthquake,2017-0349,"40.74874771","13.88770322"
02-350,Italy,ITA,"325","2017","32119",Casamicciola Terme,"3",Campania,Napoli,Casamicciola Terme,Casamicciola Terme,"0",NA,earthquake,2017-0349,"40.74145528","13.90991974"
02-350,Italy,ITA,"325","2017","32120",Ischia,"3",Campania,Napoli,Ischia,Ischia Isl.,"0",NA,earthquake,2017-0349,"40.72790604","13.94778294"
02-509,Peru,PER,"135","2016","33118",Paratia,"3",Puno,Lampa,Paratia, Paratia cities ,"0",NA,earthquake,2016-0464,"-15.46764008","-70.70530799"
02-511,Peru,PER,"135","2016","33128",Chivay,"3",Arequipa,Caylloma,Chivay, Chivay,"0",NA,earthquake,2016-0298,"-15.63995475","-71.55038552"
02-511,Peru,PER,"135","2016","33129",Callalli,"3",Arequipa,Caylloma,Callalli, Callalli ,"0",NA,earthquake,2016-0298,"-15.52105296","-71.24854634"
02-511,Peru,PER,"135","2016","33130",Maca,"3",Arequipa,Caylloma,Maca, Maca,"0",NA,earthquake,2016-0298,"-15.73153639","-71.79786952"
02-511,Peru,PER,"135","2016","33133",Madrigal,"3",Arequipa,Caylloma,Madrigal, Madrigal,"0",NA,earthquake,2016-0298,"-15.54130939","-71.85737724"
02-511,Peru,PER,"135","2016","33134",Ichupampa,"3",Arequipa,Caylloma,Ichupampa, Ichupampa,"0",NA,earthquake,2016-0298,"-15.58655946","-71.70559105"
02-511,Peru,PER,"135","2016","33135",Yanque,"3",Arequipa,Caylloma,Yanque,Yanque,"0",NA,earthquake,2016-0298,"-15.78997716","-71.4558548"
02-511,Peru,PER,"135","2016","33136",Tuti,"3",Arequipa,Caylloma,Tuti, Tuti,"0",NA,earthquake,2016-0298,"-15.48290493","-71.59824005"
02-511,Peru,PER,"135","2016","33137",Achoma,"3",Arequipa,Caylloma,Achoma, Achoma,"0",NA,earthquake,2016-0298,"-15.82193509","-71.69636438"
02-511,Peru,PER,"135","2016","33138",Tapay,"3",Arequipa,Caylloma,Tapay, Tapay,"0",NA,earthquake,2016-0298,"-15.4265268","-71.93596811"
02-511,Peru,PER,"135","2016","33140",Lari,"3",Arequipa,Caylloma,Lari, Lari,"0",NA,earthquake,2016-0298,"-15.4842315","-71.76173268"
02-515,Peru,PER,"135","2018","33199",Acari,"3",Arequipa,Caraveli,Acari, Acari,"0",NA,earthquake,2018-0011,"-15.39074021","-74.52731964"
02-515,Peru,PER,"135","2018","33204",Lomas,"3",Arequipa,Caraveli,Lomas, Lomas districts ,"0",NA,earthquake,2018-0011,"-15.38772532","-74.93593575"
02-515,Peru,PER,"135","2018","33205",Jaqui,"3",Arequipa,Caraveli,Jaqui, Jaqui,"0",NA,earthquake,2018-0011,"-15.44893175","-74.39843946"
02-515,Peru,PER,"135","2018","33208",Quicacha,"3",Arequipa,Caraveli,Quicacha, Quicaca,"0",NA,earthquake,2018-0011,"-15.56684425","-73.73093054"
02-515,Peru,PER,"135","2018","33209",Pullo,"3",Ayacucho,Parinacochas,Pullo, Pullo district,"0",NA,earthquake,2018-0011,"-15.33291986","-73.98503554"
02-515,Peru,PER,"135","2018","33212",Yauca,"3",Arequipa,Caraveli,Yauca,Yauca,"0",NA,earthquake,2018-0011,"-15.63343796","-74.42952302"
02-535,Philippines,PHI,"840","2017","33416",Marikaban,"3",Batangas,Tingloy,Marikaban, Maricaban Island,"0",NA,earthquake,2017-0140,"13.67524982","120.8398612"
06-208,Pakistan,PAK,"770","2015","44290",Sahiwal,"3",Punjab,Multan,Sahiwal, Sahiwal District,"0",NA,earthquake,2015-0476,"30.53700777","72.87305509"
06-208,Pakistan,PAK,"770","2015","44292",Sheikhupura,"3",Punjab,Lahore,Sheikhupura, Sheikhupura District districts ,"0",NA,earthquake,2015-0476,"31.72907272","74.11042418"
06-208,Pakistan,PAK,"770","2015","44293",Chakwal,"3",Punjab,Rawalpindi,Chakwal, Chakwal District,"0",NA,earthquake,2015-0476,"32.89370072","72.50615437"
06-208,Pakistan,PAK,"770","2015","44296",Mianwali,"3",Punjab,Sargodha,Mianwali, Mianwali District,"0",NA,earthquake,2015-0476,"32.66277937","71.52477794"
06-208,Pakistan,PAK,"770","2015","44297",Kasur,"3",Punjab,Lahore,Kasur, Kasur District,"0",NA,earthquake,2015-0476,"31.04550984","74.13487318"
06-208,Pakistan,PAK,"770","2015","44299",Jhelum,"3",Punjab,Rawalpindi,Jhelum, Jhelum District,"0",NA,earthquake,2015-0476,"32.83385847","73.27392996"
Jun-51,China,CHN,"710","2015","44780",Cangyuan Va,"3",Yunnan,Lincang,Cangyuan Va, Cangyuan Wa Zizhixian,"0",NA,earthquake,2015-0125,"23.27474593","99.26544012"
Jun-51,China,CHN,"710","2015","44782",Zhenkang,"3",Yunnan,Lincang,Zhenkang,Zhenkang Xian,"0",NA,earthquake,2015-0125,"23.89960057","98.99999827"
Jun-51,China,CHN,"710","2015","44783",Gengma Dai And Va,"3",Yunnan,Lincang,Gengma Dai And Va, Gengma Dai-Wa Zizhixian areas ,"0",NA,earthquake,2015-0125,"23.63991373","99.42766036"
"14",Afghanistan,AFG,"700","1994","77",Char Bolak,"2",Balkh,Char Bolak,NA,Balkh,"0",NA,earthquake,1994-0057,"36.8298296","66.61709276"
"14",Afghanistan,AFG,"700","1994","230",Mazar-i-Sharif,"2",Balkh,Mazar-i-Sharif,NA,Mazar-I-Sharif District,"0",NA,earthquake,1994-0057,"36.70319295","67.10315636"
"25",Afghanistan,AFG,"700","1999","66",Baraki Barak,"2",Logar,Baraki Barak,NA,Baraki Barak,"0",NA,earthquake,1999-0054,"33.92139587","68.89916029"
"25",Afghanistan,AFG,"700","1999","232",Muhammad Agha,"2",Logar,Muhammad Agha,NA,Mohammad Agha - Lowgar,"0",NA,earthquake,1999-0054,"34.21339019","69.18868602"
"25",Afghanistan,AFG,"700","1999","258",Nirkh,"2",Wardak,Nirkh,NA,Nirkh,"0",NA,earthquake,1999-0054,"34.34596944","68.73607548"
"25",Afghanistan,AFG,"700","1999","282",Puli Alam,"2",Logar,Puli Alam,NA,Pul-e-Alam,"0",NA,earthquake,1999-0054,"33.98821607","69.05572359"
"25",Afghanistan,AFG,"700","1999","302",Sayid Abad,"2",Wardak,Sayid Abad,NA,Sayedabad,"0",NA,earthquake,1999-0054,"33.92584748","68.6548562"
"29",Afghanistan,AFG,"700","2002","5",Aybak,"2",Samangan,Aybak,NA,Aybak,"0",NA,earthquake,2002-0122,"36.22091387","67.9570551"
"29",Afghanistan,AFG,"700","2002","52",Baharak,"2",Badakhshan,Baharak,NA,Baharak,"0",NA,earthquake,2002-0122,"37.02137426","71.10224525"
"29",Afghanistan,AFG,"700","2002","147",Jurm,"2",Badakhshan,Jurm,NA,Jurm,"0",NA,earthquake,2002-0122,"36.57862661","70.82630854"
"29",Afghanistan,AFG,"700","2002","191",Khuram Wa Sarbagh,"2",Samangan,Khuram Wa Sarbagh,NA,Khuram Sarbagh - Samagan,"0",NA,earthquake,2002-0122,"35.97824758","68.11135823"
"72",Afghanistan,AFG,"700","2009","129",Hisarak,"2",Nangarhar,Hisarak,NA,Hisarak,"0",NA,earthquake,2009-0156,"34.28980431","69.76975754"
"72",Afghanistan,AFG,"700","2009","180",Khogyani,"2",Nangarhar,Khogyani,NA,Khogyani,"0",NA,earthquake,2009-0156,"34.17827224","70.15070723"
"72",Afghanistan,AFG,"700","2009","308",Sherzad,"2",Nangarhar,Sherzad,NA,Sherzad,"0",NA,earthquake,2009-0156,"34.22393468","69.99567393"
"84",Afghanistan,AFG,"700","2012","70",Burka,"2",Baghlan,Burka,NA,Burka,"0",NA,earthquake,2012-0164,"36.23241324","69.15532575"
"84",Afghanistan,AFG,"700","2012","189",Khost Wa Firing,"2",Baghlan,Khost Wa Firing,NA,Khost Wa Fereng,"0",NA,earthquake,2012-0164,"35.97871087","69.6509755"
"84",Afghanistan,AFG,"700","2012","239",Nahrin,"2",Baghlan,Nahrin,NA,Nahrin,"0",NA,earthquake,2012-0164,"35.9875658","69.12915394"
"87",Afghanistan,AFG,"700","2013","2",Achin,"2",Nangarhar,Achin,NA,Achin,"0",NA,earthquake,2013-0151,"34.05868312","70.67055551"
"87",Afghanistan,AFG,"700","2013","67",Bati Kot,"2",Nangarhar,Bati Kot,NA,Batikot,"0",NA,earthquake,2013-0151,"34.29883716","70.76090874"
"87",Afghanistan,AFG,"700","2013","76",Chaparhar,"2",Nangarhar,Chaparhar,NA,Chaparhar,"0",NA,earthquake,2013-0151,"34.30438372","70.37040281"
"87",Afghanistan,AFG,"700","2013","78",Chawkay,"2",Kunar,Chawkay,NA,Chawkay,"0",NA,earthquake,2013-0151,"34.73547437","70.87290057"
"87",Afghanistan,AFG,"700","2013","82",Dih Bala,"2",Nangarhar,Dih Bala,NA,Spinghar,"0",NA,earthquake,2013-0151,"34.06585479","70.42450679"
"87",Afghanistan,AFG,"700","2013","115",Goshta,"2",Nangarhar,Goshta,NA,Goshta,"0",NA,earthquake,2013-0151,"34.46552182","70.86926587"
"87",Afghanistan,AFG,"700","2013","130",Hisarak,"2",Nangarhar,Hisarak,NA,Hesarak,"0",NA,earthquake,2013-0151,"34.28980431","69.76975754"
"87",Afghanistan,AFG,"700","2013","162",Kama,"2",Nangarhar,Kama,NA,Kama,"0",NA,earthquake,2013-0151,"34.45522007","70.6681308"
"87",Afghanistan,AFG,"700","2013","179",Khas Kunar,"2",Kunar,Khas Kunar,NA,Khaskunar,"0",NA,earthquake,2013-0151,"34.61715565","70.98027162"
"87",Afghanistan,AFG,"700","2013","181",Khogyani,"2",Nangarhar,Khogyani,NA,Khogyani,"0",NA,earthquake,2013-0151,"34.17827224","70.15070723"
"87",Afghanistan,AFG,"700","2013","234",Muhmand Dara,"2",Nangarhar,Muhmand Dara,NA,Muhmand Dara,"0",NA,earthquake,2013-0151,"34.20620789","71.00936187"
"87",Afghanistan,AFG,"700","2013","259",Nurgal,"2",Kunar,Nurgal,NA,Nurgal,"0",NA,earthquake,2013-0151,"34.67757856","70.74119164"
"87",Afghanistan,AFG,"700","2013","309",Sherzad,"2",Nangarhar,Sherzad,NA,Sherzad,"0",NA,earthquake,2013-0151,"34.22393468","69.99567393"
"87",Afghanistan,AFG,"700","2013","311",Shinwar,"2",Nangarhar,Shinwar,NA,Shinwar,"0",NA,earthquake,2013-0151,"34.1929266","70.82908904"
"87",Afghanistan,AFG,"700","2013","315",Surkh Rod,"2",Nangarhar,Surkh Rod,NA,Bahsud,"0",NA,earthquake,2013-0151,"34.40034344","70.25844087"
"145",Algeria,DZA,"615","2003","477",Bordj Menaiel,"2",Boumerdes,Bordj Menaiel,NA,Bordj Menaiel,"0",NA,earthquake,2003-0245,"36.75082115","3.750874429"
"145",Algeria,DZA,"615","2003","504",Dellys,"2",Boumerdes,Dellys,NA,Dellys,"0",NA,earthquake,2003-0245,"36.88210096","3.917202394"
"145",Algeria,DZA,"615","2003","528",Isser,"2",Boumerdes,Isser,NA,Isser,"0",NA,earthquake,2003-0245,"36.69467099","3.692444967"
"145",Algeria,DZA,"615","2003","530",Khemis El Khechna,"2",Boumerdes,Khemis El Khechna,NA,Khemis El Khechna,"0",NA,earthquake,2003-0245,"36.63911198","3.315665678"
"145",Algeria,DZA,"615","2003","579",Reghaia,"2",Alger,Reghaia,NA,Reghaia,"0",NA,earthquake,2003-0245,"36.74703458","3.350749684"
"145",Algeria,DZA,"615","2003","585",Rouiba,"2",Alger,Rouiba,NA,Rouiba,"0",NA,earthquake,2003-0245,"36.73650534","3.280857173"
"145",Algeria,DZA,"615","2003","617",Thenia,"2",Boumerdes,Thenia,NA,Thenia,"0",NA,earthquake,2003-0245,"36.7323074","3.551351678"
"145",Algeria,DZA,"615","2003","650",Zemmouri,"2",Boumerdes,Zemmouri,NA,Zemmouri,"0",NA,earthquake,2003-0245,"36.78554568","3.603563449"
"238",Argentina,ARG,"160","2002","822",Castro Barros,"2",La Rioja,Castro Barros,NA,Castro Barros,"0",NA,earthquake,2002-0368,"-28.85892048","-66.91881067"
"268",Australia,AUS,"900","1968","1266",Perth,"2",Western Australia,Perth,NA,Perth,"0",NA,earthquake,1968-0077,"-31.95564407","115.8554552"
"407",Azerbaijan,AZE,"373","1998","1444",Astara,"2",Lankaran,Astara,NA,Astara,"0",NA,earthquake,1998-0215,"38.49829077","48.72394629"
"407",Azerbaijan,AZE,"373","1998","1471",Lerik,"2",Lankaran,Lerik,NA,Lerik,"0",NA,earthquake,1998-0215,"38.71144527","48.48394294"
"407",Azerbaijan,AZE,"373","1998","1472",Masalli,"2",Lankaran,Masalli,NA,Masally,"0",NA,earthquake,1998-0215,"38.98408475","48.72215133"
"407",Azerbaijan,AZE,"373","1998","1495",Yardimli,"2",Lankaran,Yardimli,NA,Yardimili,"0",NA,earthquake,1998-0215,"38.88030703","48.25370469"
"408",Azerbaijan,AZE,"373","1999","1491",Ucar,"2",Aran,Ucar,NA,Udzhar,"0",NA,earthquake,1999-0196,"40.41042084","47.72448117"
"409",Azerbaijan,AZE,"373","2000","1445",Baki,"2",Absheron,Baki,NA,Baku,"0",NA,earthquake,2000-0769,"40.31025474","49.76628973"
"409",Azerbaijan,AZE,"373","2000","1489",Sumqayit,"2",Absheron,Sumqayit,NA,Sumgait,"0",NA,earthquake,2000-0769,"40.59345448","49.59775568"
"413",Azerbaijan,AZE,"373","2012","1448",Balaken,"2",Shaki-Zaqatala,Balaken,NA,Balakan,"0",NA,earthquake,2012-0191,"41.72728695","46.44658657"
"414",Azerbaijan,AZE,"373","2012","1498",Zaqatala,"2",Shaki-Zaqatala,Zaqatala,NA,Zagatala,"0",NA,earthquake,2012-0545,"41.58963493","46.68855289"
"1088",Chile,CHL,"155","1985","3685",Cauquenes,"2",Maule,Cauquenes,NA,Cauquenes,"0",NA,earthquake,1985-0041,"-35.84418273","-72.35544822"
"1088",Chile,CHL,"155","1985","3770",Talca,"2",Maule,Talca,NA,Talca,"0",NA,earthquake,1985-0041,"-35.51649757","-71.34746489"
"1099",Chile,CHL,"155","1995","3681",Calama,"3",Antofagasta,El Loa,Calama,Calama,"0",NA,earthquake,1995-0171,"-22.18679851","-68.60286468"
"1099",Chile,CHL,"155","1995","3778",Tocopilla,"2",Antofagasta,Tocopilla,NA,Tocopilla,"0",NA,earthquake,1995-0171,"-22.03853475","-69.55833016"
"1103",Chile,CHL,"155","1997","3690",Choapa,"2",Coquimbo,Choapa,NA,Choapa,"0",NA,earthquake,1997-0247,"-31.6509409","-71.01461747"
"1103",Chile,CHL,"155","1997","3710",Elqui,"2",Coquimbo,Elqui,NA,Elqui,"0",NA,earthquake,1997-0247,"-29.82587274","-70.73134574"
"1103",Chile,CHL,"155","1997","3722",Limari,"2",Coquimbo,Limari,NA,Limari,"0",NA,earthquake,1997-0247,"-30.75156689","-70.92603989"
"1120",Chile,CHL,"155","2007","3732",Mejillones,"3",Antofagasta,Antofagasta,Mejillones,Mejillones,"0",NA,earthquake,2007-0587,"-22.96868317","-70.21421637"
"1126",Chile,CHL,"155","2014","3670",Arica,"2",Arica Y Parinacota,Arica,NA,Arica,"0",NA,earthquake,2014-0094,"-18.63728435","-69.88836328"
"1705",Colombia,COL,"100","1992","5133",Medellin,"2",Antioquia,Medellin,NA,Murindo Apartado Medellin,"0",NA,earthquake,1992-0151,"6.265726924","-75.63383605"
"1705",Colombia,COL,"100","1992","5239",San Pedro De Uraba,"2",Antioquia,San Pedro De Uraba,NA,San Pedro de Uraba,"0",NA,earthquake,1992-0151,"8.418978217","-76.31830328"
"1705",Colombia,COL,"100","1992","5310",Vigia Del Fuerte,"2",Antioquia,Vigia Del Fuerte,NA,Vigia del Fuerte,"0",NA,earthquake,1992-0151,"6.384962336","-76.66407945"
"1731",Colombia,COL,"100","2004","4961",Bajo Baudo,"2",Choco,Bajo Baudo,NA,Bajo Baudo,"0",NA,earthquake,2004-0575,"5.035143802","-77.17653717"
"1731",Colombia,COL,"100","2004","4995",Bugalagrande,"2",Valle Del Cauca,Bugalagrande,NA,Bugalagrande,"0",NA,earthquake,2004-0575,"4.19670905","-76.1282202"
"1731",Colombia,COL,"100","2004","5004",Calima,"2",Valle Del Cauca,Calima,NA,Calima,"0",NA,earthquake,2004-0575,"3.954815038","-76.63862856"
"1731",Colombia,COL,"100","2004","5082",El Cerrito,"2",Valle Del Cauca,El Cerrito,NA,El Cerrito,"0",NA,earthquake,2004-0575,"3.678644945","-76.21938952"
"1731",Colombia,COL,"100","2004","5311",Vijes,"2",Valle Del Cauca,Vijes,NA,Vijes,"0",NA,earthquake,2004-0575,"3.732470223","-76.49425911"
"1731",Colombia,COL,"100","2004","5316",Zarzal,"2",Valle Del Cauca,Zarzal,NA,Zarzal,"0",NA,earthquake,2004-0575,"4.35860083","-76.09545013"
"1740",Colombia,COL,"100","2007","5083",El Charco,"2",Narino,El Charco,NA,El Charco,"0",NA,earthquake,2007-0433,"2.252721574","-77.86813493"
"1740",Colombia,COL,"100","2007","5147",Mosquera,"2",Narino,Mosquera,NA,Mosquera,"0",NA,earthquake,2007-0433,"4.658471499","-74.25222098"
"1807",Costa Rica,CRI,"94","2004","5342",Aguirre,"2",Puntarenas,Aguirre,NA,Aguirre,"0",NA,earthquake,2004-0599,"9.425893342","-84.05627554"
"1807",Costa Rica,CRI,"94","2004","5461",Parrita,"2",Puntarenas,Parrita,NA,Parrita,"0",NA,earthquake,2004-0599,"9.566205312","-84.33205945"
"1823",Costa Rica,CRI,"94","2012","5339",Abangares,"2",Guanacaste,Abangares,NA,Abangares,"0",NA,earthquake,2012-0343,"10.26087092","-84.99883301"
"1823",Costa Rica,CRI,"94","2012","5341",Acosta,"2",San Jose,Acosta,NA,Acosta,"0",NA,earthquake,2012-0343,"9.747195017","-84.23006574"
"1823",Costa Rica,CRI,"94","2012","5345",Aguirre,"2",Puntarenas,Aguirre,NA,Aguirre,"0",NA,earthquake,2012-0343,"9.425893342","-84.05627554"
"1823",Costa Rica,CRI,"94","2012","5360",Atenas,"2",Alajuela,Atenas,NA,Atenas,"0",NA,earthquake,2012-0343,"9.982544307","-84.40252023"
"1823",Costa Rica,CRI,"94","2012","5367",Barva,"2",Heredia,Barva,NA,Barva,"0",NA,earthquake,2012-0343,"10.08685425","-84.11695516"
"1823",Costa Rica,CRI,"94","2012","5388",Garabito,"2",Puntarenas,Garabito,NA,Garabito,"0",NA,earthquake,2012-0343,"9.71322063","-84.61365461"
"1823",Costa Rica,CRI,"94","2012","5390",Grecia,"2",Alajuela,Grecia,NA,Grecia,"0",NA,earthquake,2012-0343,"10.31178854","-84.23703496"
"1823",Costa Rica,CRI,"94","2012","5421",Liberia,"2",Guanacaste,Liberia,NA,Liberia,"0",NA,earthquake,2012-0343,"10.71554369","-85.49314025"
"1823",Costa Rica,CRI,"94","2012","5454",Nandayure,"2",Guanacaste,Nandayure,NA,Nandayure,"0",NA,earthquake,2012-0343,"9.923069149","-85.28588398"
"1823",Costa Rica,CRI,"94","2012","5455",Naranjo,"2",Alajuela,Naranjo,NA,Naranjo,"0",NA,earthquake,2012-0343,"10.12249695","-84.38456787"
"1823",Costa Rica,CRI,"94","2012","5458",Nicoya,"2",Guanacaste,Nicoya,NA,Nicoya,"0",NA,earthquake,2012-0343,"10.11804818","-85.46032738"
"1823",Costa Rica,CRI,"94","2012","5484",Puriscal,"2",San Jose,Puriscal,NA,Puriscal,"0",NA,earthquake,2012-0343,"9.749760555","-84.3872901"
"1823",Costa Rica,CRI,"94","2012","5487",San Carlos,"2",Alajuela,San Carlos,NA,San Carlos,"0",NA,earthquake,2012-0343,"10.59267932","-84.433624"
"1823",Costa Rica,CRI,"94","2012","5520",Sarapiqui,"2",Heredia,Sarapiqui,NA,Sarapiqui,"0",NA,earthquake,2012-0343,"10.49990284","-83.99598748"
"1823",Costa Rica,CRI,"94","2012","5543",Upala,"2",Alajuela,Upala,NA,Upala,"0",NA,earthquake,2012-0343,"10.88794978","-85.14737575"
"1823",Costa Rica,CRI,"94","2012","5545",Valverde Vega,"2",Alajuela,Valverde Vega,NA,Valverde Vega,"0",NA,earthquake,2012-0343,"10.18745571","-84.29968207"
"1831",Croatia,HRV,"344","1996","5556",Dubrovacko Primorje,"2",Dubrovacko-Neretvanska,Dubrovacko Primorje,NA,Slano,"0",NA,earthquake,1996-0212,"42.83083649","17.83015224"
"1831",Croatia,HRV,"344","1996","5575",Ston,"2",Dubrovacko-Neretvanska,Ston,NA,Ston,"0",NA,earthquake,1996-0212,"42.86054578","17.60264407"
"2012",Ecuador,ECU,"130","1995","6003",Archidona,"2",Napo,Archidona,NA,Archidona,"0",NA,earthquake,1995-0226,"-0.716448459","-77.92988964"
"2012",Ecuador,ECU,"130","1995","6143",Tena,"2",Napo,Tena,NA,Tena,"0",NA,earthquake,1995-0226,"-0.998317107","-77.80463188"
"2015",Ecuador,ECU,"130","1998","6018",Canoa,"3",Manabi,San Vicente,Canoa,Canoa,"0",NA,earthquake,1998-0353,"-0.407933077","-80.3829717"
"2015",Ecuador,ECU,"130","1998","6028",Chone,"2",Manabi,Chone,NA,Chone,"0",NA,earthquake,1998-0353,"-0.46607852","-79.95565664"
"2015",Ecuador,ECU,"130","1998","6074",Jama,"3",Manabi,Jama,Jama,Jama,"0",NA,earthquake,1998-0353,"-0.222088214","-80.22999142"
"2015",Ecuador,ECU,"130","1998","6105",Montecristi,"2",Manabi,Montecristi,NA,Montecristi,"0",NA,earthquake,1998-0353,"-1.108871292","-80.68549438"
"2015",Ecuador,ECU,"130","1998","6123",Portoviejo,"2",Manabi,Portoviejo,NA,Portoviejo,"0",NA,earthquake,1998-0353,"-1.049996292","-80.34880618"
"2061",El Salvador,SLV,"92","2001","6204",Comasagua,"2",La Libertad,Comasagua,NA,Comasagua municipality,"0",NA,earthquake,2001-0013,"13.60312778","-89.3612283"
"2071",El Salvador,SLV,"92","2006","6197",Atiquizaya,"2",Ahuachapan,Atiquizaya,NA,Atiquizaya,"0",NA,earthquake,2006-0699,"13.95664396","-89.73571045"
"2071",El Salvador,SLV,"92","2006","6237",San Lorenzo,"2",Ahuachapan,San Lorenzo,NA,San Lorenzo,"0",NA,earthquake,2006-0699,"14.02288294","-89.77847209"
"2283",Georgia,GEO,"372","2009","6743",Oni,"2",Racha-Lechkhumi-Kvemo Svaneti,Oni,NA,Oni district,"0",NA,earthquake,2009-0388,"42.62247376","43.53697709"
"2299",Germany,DEU,"260","1992","6798",Bonn,"2",Nordrhein-Westfalen,Bonn,NA,Bonn,"0",NA,earthquake,1992-0093,"50.70569774","7.112616792"
"2299",Germany,DEU,"260","1992","6818",Heinsberg,"2",Nordrhein-Westfalen,Heinsberg,NA,Heinsberg,"0",NA,earthquake,1992-0093,"51.04914603","6.162254137"
"2371",Greece,GRC,"350","1965","6965",Corinth,"3","Peloponnese; Western Greece And The Ionian Islands",Peloponnese,Corinth,Corinth,"0",NA,earthquake,1965-0015,"37.81382394","22.94476589"
"2371",Greece,GRC,"350","1965","7035",West Greece,"2","Peloponnese; Western Greece And The Ionian Islands",West Greece,NA,Patras,"0",NA,earthquake,1965-0015,"38.28216056","21.57299253"
"2383",Greece,GRC,"350","1986","6978",Kalamata,"3","Peloponnese; Western Greece And The Ionian Islands",Peloponnese,Kalamata,Kalamata,"0",NA,earthquake,1986-0113,"37.10027548","22.13119107"
"2397",Greece,GRC,"350","2000","6973",Florina,"3",Epirus And Western Macedonia,West Macedonia,Florina,Flampoura,"0",NA,earthquake,2000-0303,"40.80232284","21.4836928"
"2418",Greece,GRC,"350","2008","6988",Lefkada,"3","Peloponnese; Western Greece And The Ionian Islands",Ionian Islands,Lefkada,Leucade Island,"0",NA,earthquake,2008-0226,"38.70114932","20.66451274"
"2418",Greece,GRC,"350","2008","7042",West Greece,"2","Peloponnese; Western Greece And The Ionian Islands",West Greece,NA,Achaias,"0",NA,earthquake,2008-0226,"38.28216056","21.57299253"
"2434",Guatemala,GTM,"90","1985","7107",Ixcan,"2",Quiche,Ixcan,NA,San Antonio Chiquito,"0",NA,earthquake,1985-0120,"15.9385554","-90.83544375"
"2552",Haiti,HTI,"41","2010","7278",Croix-des-Bouquets,"2",Ouest,Croix-des-Bouquets,NA,Croix des Bouquets,"0",NA,earthquake,2010-0017,"18.534189","-72.04601426"
"2606",Honduras,HND,"91","2009","7506",Ceguaca,"2",Santa Barbara,Ceguaca,NA,Ceguaca,"0",NA,earthquake,2009-0205,"14.80234826","-88.19394285"
"2606",Honduras,HND,"91","2009","7507",Chinda,"2",Santa Barbara,Chinda,NA,Chinda,"0",NA,earthquake,2009-0205,"15.11193419","-88.15914937"
"2606",Honduras,HND,"91","2009","7572",Gualala,"2",Santa Barbara,Gualala,NA,Gualala,"0",NA,earthquake,2009-0205,"14.98330348","-88.17307826"
"2606",Honduras,HND,"91","2009","7574",Guanaja,"2",Islas De La Bahia,Guanaja,NA,Guanaja,"0",NA,earthquake,2009-0205,"16.46812259","-85.88379417"
"2606",Honduras,HND,"91","2009","7575",Ilama,"2",Santa Barbara,Ilama,NA,Ilama,"0",NA,earthquake,2009-0205,"15.0365324","-88.11726603"
"2606",Honduras,HND,"91","2009","7585",Jose Santos Guardiola,"2",Islas De La Bahia,Jose Santos Guardiola,NA,Jose Santos Guardiola,"0",NA,earthquake,2009-0205,"16.41432977","-86.30391312"
"2606",Honduras,HND,"91","2009","7586",La Ceiba,"2",Atlantida,La Ceiba,NA,La Ceiba,"0",NA,earthquake,2009-0205,"15.67441844","-86.77427488"
"2606",Honduras,HND,"91","2009","7588",La Lima,"2",Cortes,La Lima,NA,La Lima,"0",NA,earthquake,2009-0205,"15.48195759","-87.86726784"
"2606",Honduras,HND,"91","2009","7593",Las Vegas,"2",Santa Barbara,Las Vegas,NA,Las Vegas,"0",NA,earthquake,2009-0205,"14.85219923","-88.05053647"
"2606",Honduras,HND,"91","2009","7603",Omoa,"2",Cortes,Omoa,NA,Omoa,"0",NA,earthquake,2009-0205,"15.66725035","-88.17832421"
"2606",Honduras,HND,"91","2009","7604",Petoa,"2",Santa Barbara,Petoa,NA,Petoa,"0",NA,earthquake,2009-0205,"15.25624287","-88.22880836"
"2606",Honduras,HND,"91","2009","7610",San Pedro Sula,"2",Cortes,San Pedro Sula,NA,San Pedro Sula,"0",NA,earthquake,2009-0205,"15.50958098","-88.11805799"
"2606",Honduras,HND,"91","2009","7620",Tela,"2",Atlantida,Tela,NA,Tela,"0",NA,earthquake,2009-0205,"15.70581501","-87.59720422"
"2720",India,IND,"750","1988","7992",Darbhanga,"2",Bihar,Darbhanga,NA,Dharbhanga,"0",NA,earthquake,1988-0382,"26.11540047","86.01625194"
"2720",India,IND,"750","1988","8414",Madhubani,"2",Bihar,Madhubani,NA,Madhubani,"0",NA,earthquake,1988-0382,"26.40674188","86.21186545"
"2720",India,IND,"750","1988","8505",Munger,"2",Bihar,Munger,NA,Munger,"0",NA,earthquake,1988-0382,"25.20892285","86.5265508"
"2720",India,IND,"750","1988","8712",Saharsa,"2",Bihar,Saharsa,NA,Saharsa,"0",NA,earthquake,1988-0382,"25.81718474","86.58260238"
"2752",India,IND,"750","1993","8410",Latur,"2",Maharashtra,Latur,NA,Killari,"0",NA,earthquake,1993-0074,"18.37278299","76.75964617"
"2752",India,IND,"750","1993","8607",Osmanabad,"2",Maharashtra,Osmanabad,NA,Osmanabad,"0",NA,earthquake,1993-0074,"18.18785859","76.03986326"
"2785",India,IND,"750","1999","7820",Bageshwar,"2",Uttarakhand,Bageshwar,NA,Bageshwar,"0",NA,earthquake,1999-0099,"29.99572737","79.84641101"
"2785",India,IND,"750","1999","7947",Chamoli,"2",Uttarakhand,Chamoli,NA,Chamoli,"0",NA,earthquake,1999-0099,"30.49807762","79.55785969"
"2785",India,IND,"750","1999","8705",Rudraprayag,"2",Uttarakhand,Rudraprayag,NA,Rudraprayag,"0",NA,earthquake,1999-0099,"30.5935937","79.09749807"
"2785",India,IND,"750","1999","8809",Tehri Garhwal,"2",Uttarakhand,Tehri Garhwal,NA,Tehri Garhwal,"0",NA,earthquake,1999-0099,"30.44316264","78.56945826"
"2797",India,IND,"750","2001","7673",Ahmadabad,"2",Gujarat,Ahmadabad,NA,Ahmadabad,"0",NA,earthquake,2001-0033,"22.72911928","72.20432773"
"2797",India,IND,"750","2001","7681",Amreli,"2",Gujarat,Amreli,NA,Amreli,"0",NA,earthquake,2001-0033,"21.42212608","71.26448769"
"2797",India,IND,"750","2001","7684",Anand,"2",Gujarat,Anand,NA,Anand,"0",NA,earthquake,2001-0033,"22.44939448","72.7899001"
"2797",India,IND,"750","2001","7844",Banas Kantha,"2",Gujarat,Banas Kantha,NA,Banas Kantha,"0",NA,earthquake,2001-0033,"24.28099748","72.03809257"
"2797",India,IND,"750","2001","7883",Bharuch,"2",Gujarat,Bharuch,NA,Bharuch,"0",NA,earthquake,2001-0033,"21.78666651","72.92475605"
"2797",India,IND,"750","2001","7990",Dahod,"2",Gujarat,Dahod,NA,Dahdod,"0",NA,earthquake,2001-0033,"22.79658752","74.06633483"
"2797",India,IND,"750","2001","8053",Gandhinagar,"2",Gujarat,Gandhinagar,NA,Gandhinagar,"0",NA,earthquake,2001-0033,"23.20990618","72.70209791"
"2797",India,IND,"750","2001","8229",Jamnagar,"2",Gujarat,Jamnagar,NA,Jamnagar,"0",NA,earthquake,2001-0033,"22.33618485","70.23238871"
"2797",India,IND,"750","2001","8245",Junagadh,"2",Gujarat,Junagadh,NA,Junagadh,"0",NA,earthquake,2001-0033,"21.25423825","70.57263302"
"2797",India,IND,"750","2001","8346",Kheda,"2",Gujarat,Kheda,NA,Kheda,"0",NA,earthquake,2001-0033,"22.8768383","73.02447162"
"2797",India,IND,"750","2001","8475",Mahesana,"2",Gujarat,Mahesana,NA,Mahesana,"0",NA,earthquake,2001-0033,"23.57969264","72.49688414"
"2797",India,IND,"750","2001","8541",Navsari,"2",Gujarat,Navsari,NA,Navsari,"0",NA,earthquake,2001-0033,"20.81218482","73.10551991"
"2797",India,IND,"750","2001","8620",Patan,"2",Gujarat,Patan,NA,Patan,"0",NA,earthquake,2001-0033,"23.76897852","71.80140683"
"2797",India,IND,"750","2001","8627",Porbandar,"2",Gujarat,Porbandar,NA,Porbandar,"0",NA,earthquake,2001-0033,"21.63737945","69.80371801"
"2797",India,IND,"750","2001","8691",Rajkot,"2",Gujarat,Rajkot,NA,Rajkot,"0",NA,earthquake,2001-0033,"22.0149433","70.76149605"
"2797",India,IND,"750","2001","8708",Sabar Kantha,"2",Gujarat,Sabar Kantha,NA,Sabar Kantha,"0",NA,earthquake,2001-0033,"23.80666439","73.03763379"
"2797",India,IND,"750","2001","8768",Surat,"2",Gujarat,Surat,NA,Surat,"0",NA,earthquake,2001-0033,"21.26454257","73.0734589"
"2797",India,IND,"750","2001","8773",Surendranagar,"2",Gujarat,Surendranagar,NA,Surendranagar,"0",NA,earthquake,2001-0033,"22.76841671","71.60708794"
"2797",India,IND,"750","2001","8932",Vadodara,"2",Gujarat,Vadodara,NA,Vadodara,"0",NA,earthquake,2001-0033,"22.24629292","73.24968977"
"2835",India,IND,"750","2004","7676",Alappuzha,"2",Kerala,Alappuzha,NA,Alappuzha,"0",NA,earthquake,2004-0659,"9.413009259","76.44657618"
"2835",India,IND,"750","2004","7958",Chennai,"2",Tamil Nadu,Chennai,NA,Chennai,"0",NA,earthquake,2004-0659,"13.04849576","80.23437074"
"2835",India,IND,"750","2004","7977",Cuddalore,"2",Tamil Nadu,Cuddalore,NA,Cuddalore,"0",NA,earthquake,2004-0659,"11.52490531","79.44715025"
"2835",India,IND,"750","2004","8039",East Godavari,"2",Andhra Pradesh,East Godavari,NA,East Godavari,"0",NA,earthquake,2004-0659,"17.18512821","82.00214406"
"2835",India,IND,"750","2004","8125",Guntur,"2",Andhra Pradesh,Guntur,NA,Guntur,"0",NA,earthquake,2004-0659,"16.29023485","80.08194333"
"2835",India,IND,"750","2004","8260",Kancheepuram,"2",Tamil Nadu,Kancheepuram,NA,Kancheepuram,"0",NA,earthquake,2004-0659,"12.68074493","79.93525454"
"2835",India,IND,"750","2004","8264",Kanniyakumari,"2",Tamil Nadu,Kanniyakumari,NA,Kanniyakumari,"0",NA,earthquake,2004-0659,"8.304640347","77.3456335"
"2835",India,IND,"750","2004","8368",Kollam,"2",Kerala,Kollam,NA,Kollam,"0",NA,earthquake,2004-0659,"8.954796002","76.86795887"
"2835",India,IND,"750","2004","8381",Krishna,"2",Andhra Pradesh,Krishna,NA,Krishna,"0",NA,earthquake,2004-0659,"16.55006848","80.79256277"
"2835",India,IND,"750","2004","8520",Nagappattinam,"2",Tamil Nadu,Nagappattinam,NA,Nagapattinam,"0",NA,earthquake,2004-0659,"10.86120155","79.73576795"
"2835",India,IND,"750","2004","8551",Nellore,"2",Andhra Pradesh,Nellore,NA,Nellore,"0",NA,earthquake,2004-0659,"14.43556427","79.72017697"
"2835",India,IND,"750","2004","8640",Pudukkottai,"2",Tamil Nadu,Pudukkottai,NA,Pudukkottai,"0",NA,earthquake,2004-0659,"10.3416504","78.86744128"
"2835",India,IND,"750","2004","8696",Ramanathapuram,"2",Tamil Nadu,Ramanathapuram,NA,Ramanathapuram,"0",NA,earthquake,2004-0659,"9.439387677","78.68104303"
"2835",India,IND,"750","2004","8743",Sivaganga,"2",Tamil Nadu,Sivaganga,NA,Sivaganga,"0",NA,earthquake,2004-0659,"9.906909923","78.57717069"
"2835",India,IND,"750","2004","8817",Thanjavur,"2",Tamil Nadu,Thanjavur,NA,Thanjavur,"0",NA,earthquake,2004-0659,"10.65639586","79.22342874"
"2835",India,IND,"750","2004","8823",Thiruvallur,"2",Tamil Nadu,Thiruvallur,NA,Thiruvallur,"0",NA,earthquake,2004-0659,"13.23421211","79.93380177"
"2835",India,IND,"750","2004","8827",Thiruvarur,"2",Tamil Nadu,Thiruvarur,NA,Thiruvarur,"0",NA,earthquake,2004-0659,"10.67184836","79.53370082"
"2835",India,IND,"750","2004","8830",Thoothukkudi,"2",Tamil Nadu,Thoothukkudi,NA,Thoothukudi,"0",NA,earthquake,2004-0659,"8.876886526","77.98879965"
"2835",India,IND,"750","2004","8840",Tirunelveli,"2",Tamil Nadu,Tirunelveli,NA,Tirunelveli Kattabo,"0",NA,earthquake,2004-0659,"8.789788196","77.52245428"
"2835",India,IND,"750","2004","8939",Viluppuram,"2",Tamil Nadu,Viluppuram,NA,Villupuram,"0",NA,earthquake,2004-0659,"11.96003858","79.28421145"
"2835",India,IND,"750","2004","8946",Visakhapatnam,"2",Andhra Pradesh,Visakhapatnam,NA,Vishakhapatnam,"0",NA,earthquake,2004-0659,"17.88493739","82.68205636"
"2835",India,IND,"750","2004","9009",West Godavari,"2",Andhra Pradesh,West Godavari,NA,West Godavari,"0",NA,earthquake,2004-0659,"16.88638554","81.39289921"
"2835",India,IND,"750","2004","9022",Yanam,"2",Puducherry,Yanam,NA,UT Pondicherry,"0",NA,earthquake,2004-0659,"16.71861838","82.23416181"
"2854",India,IND,"750","2005","7689",Anantnag,"2",Jammu And Kashmir,Anantnag,NA,Anantnag,"0",NA,earthquake,2005-0575,"33.82077858","75.31962528"
"2854",India,IND,"750","2005","8206",Jammu,"2",Jammu And Kashmir,Jammu,NA,Jammu,"0",NA,earthquake,2005-0575,"32.80071486","74.73195938"
"2854",India,IND,"750","2005","8625",Poonch,"2",Jammu And Kashmir,Poonch,NA,Poonch district,"0",NA,earthquake,2005-0575,"33.70860616","74.26236635"
"2943",India,IND,"750","2013","8034",Doda,"2",Jammu And Kashmir,Doda,NA,Doda,"0",NA,earthquake,2013-0140,"33.11084362","75.68756667"
"2943",India,IND,"750","2013","8358",Kishtwar,"2",Jammu And Kashmir,Kishtwar,NA,Kishtwar,"0",NA,earthquake,2013-0140,"33.54599448","75.95021049"
"2995",Indonesia,IDN,"850","1980","9845",Tasikmalaya,"2",Jawa Barat,Tasikmalaya,NA,Tasikmalaja,"0",NA,earthquake,1980-0258,"-7.496236966","108.1374781"
"3014",Indonesia,IDN,"850","1985","9593",Paniai,"2",Papua,Paniai,NA,Paniai District,"0",NA,earthquake,1985-0110,"-3.650986833","136.6476279"
"3034",Indonesia,IDN,"850","1990","9450",Kuningan,"2",Jawa Barat,Kuningan,NA,Kuningan,"0",NA,earthquake,1990-0702,"-7.000979469","108.5601904"
"3034",Indonesia,IDN,"850","1990","9490",Majalengka,"2",Jawa Barat,Majalengka,NA,Majalenga,"0",NA,earthquake,1990-0702,"-6.816073485","108.2594969"
"3034",Indonesia,IDN,"850","1990","9825",Sumedang,"2",Jawa Barat,Sumedang,NA,Sumedang area,"0",NA,earthquake,1990-0702,"-6.822337424","107.9823666"
"3035",Indonesia,IDN,"850","1990","9049",Aceh Tenggara,"2",Aceh,Aceh Tenggara,NA,Kutacane,"0",NA,earthquake,1990-0593,"3.363086552","97.7056392"
"3041",Indonesia,IDN,"850","1992","9188",Ende,"2",Nusa Tenggara Timur,Ende,NA,Ende,"0",NA,earthquake,1992-0163,"-8.675260436","121.7196723"
"3041",Indonesia,IDN,"850","1992","9543",Ngada,"2",Nusa Tenggara Timur,Ngada,NA,Ngada,"0",NA,earthquake,1992-0163,"-8.681315192","121.1148513"
"3041",Indonesia,IDN,"850","1992","9680",Sikka,"2",Nusa Tenggara Timur,Sikka,NA,Sikka,"0",NA,earthquake,1992-0163,"-8.613387917","122.3025868"
"3060",Indonesia,IDN,"850","1995","9588",Palu,"2",Sulawesi Tengah,Palu,NA,Palu,"0",NA,earthquake,1995-0089,"-0.87042364","119.9010773"
"3075",Indonesia,IDN,"850","2000","9072",Banggai,"2",Sulawesi Tengah,Banggai,NA,Banggai,"0",NA,earthquake,2000-0230,"-1.042016963","122.5272443"
"3079",Indonesia,IDN,"850","2000","9181",Depok,"2",Jawa Barat,Depok,NA,West Java Island,"0",NA,earthquake,2000-0449,"-6.397081864","106.8135335"
"3080",Indonesia,IDN,"850","2000","9474",Lebak,"2",Banten,Lebak,NA,Lebak,"0",NA,earthquake,2000-0761,"-6.646560606","106.2125102"
"3080",Indonesia,IDN,"850","2000","9592",Pandeglang,"2",Banten,Pandeglang,NA,Pandelang,"0",NA,earthquake,2000-0761,"-6.59003466","105.7459587"
"3080",Indonesia,IDN,"850","2000","9676",Serang,"2",Banten,Serang,NA,Serang,"0",NA,earthquake,2000-0761,"-6.142981979","106.1578301"
"3095",Indonesia,IDN,"850","2002","9523",Manokwari,"2",Papua Barat,Manokwari,NA,Ransiki,"0",NA,earthquake,2002-0820,"-1.108127918","133.5017725"
"3096",Indonesia,IDN,"850","2002","9524",Manokwari,"2",Papua Barat,Manokwari,NA,Ransiki,"0",NA,earthquake,2002-0643,"-1.108127918","133.5017725"
"3096",Indonesia,IDN,"850","2002","9852",Teluk Wondama,"2",Papua Barat,Teluk Wondama,NA,Wasior,"0",NA,earthquake,2002-0643,"-2.627180086","134.3211108"
"3109",Indonesia,IDN,"850","2004","9435",Klungkung,"2",Bali,Klungkung,NA,Klungkung area.,"0",NA,earthquake,2004-0001,"-8.666246108","115.4931004"
"3109",Indonesia,IDN,"850","2004","9526",Mataram,"2",Nusa Tenggara Barat,Mataram,NA,Mataram,"0",NA,earthquake,2004-0001,"-8.581619489","116.1124497"
"3112",Indonesia,IDN,"850","2004","9582",Padang Panjang,"2",Sumatera Barat,Padang Panjang,NA,Kota Padangpanjang,"0",NA,earthquake,2004-0088,"-0.45646021","100.4316316"
"3119",Indonesia,IDN,"850","2005","9046",Aceh Singkil,"2",Aceh,Aceh Singkil,NA,Banyak Islands,"0",NA,earthquake,2005-0160,"2.495839858","97.87256182"
"3127",Indonesia,IDN,"850","2006","9107",Bantul,"2",Yogyakarta,Bantul,NA,Bantul-Yogyakarta,"0",NA,earthquake,2006-0279,"-7.905254463","110.3595061"
"3127",Indonesia,IDN,"850","2006","9156",Boyolali,"2",Jawa Tengah,Boyolali,NA,Boyolali,"0",NA,earthquake,2006-0279,"-7.411365371","110.6531454"
"3127",Indonesia,IDN,"850","2006","9209",Gunung Kidul,"2",Yogyakarta,Gunung Kidul,NA,Gunung Kidul,"0",NA,earthquake,2006-0279,"-7.994928318","110.6116574"
"3127",Indonesia,IDN,"850","2006","9433",Klaten,"2",Jawa Tengah,Klaten,NA,Klaten,"0",NA,earthquake,2006-0279,"-7.686558533","110.6132251"
"3127",Indonesia,IDN,"850","2006","9488",Magelang,"2",Jawa Tengah,Magelang,NA,Magelang,"0",NA,earthquake,2006-0279,"-7.502803139","110.2472942"
"3127",Indonesia,IDN,"850","2006","9646",Purworejo,"2",Jawa Tengah,Purworejo,NA,Purworejo,"0",NA,earthquake,2006-0279,"-7.698706312","109.965728"
"3127",Indonesia,IDN,"850","2006","9689",Sleman,"2",Yogyakarta,Sleman,NA,Sleman,"0",NA,earthquake,2006-0279,"-7.717610748","110.3875425"
"3132",Indonesia,IDN,"850","2006","9108",Bantul,"2",Yogyakarta,Bantul,NA,Bantul,"0",NA,earthquake,2006-0372,"-7.905254463","110.3595061"
"3132",Indonesia,IDN,"850","2006","9112",Banyumas,"2",Jawa Tengah,Banyumas,NA,Banyumas,"0",NA,earthquake,2006-0372,"-7.454185866","109.173259"
"3132",Indonesia,IDN,"850","2006","9164",Ciamis,"2",Jawa Barat,Ciamis,NA,Ciamis,"0",NA,earthquake,2006-0372,"-7.435352047","108.4674829"
"3132",Indonesia,IDN,"850","2006","9172",Cilacap,"2",Jawa Tengah,Cilacap,NA,Cilacap,"0",NA,earthquake,2006-0372,"-7.488561833","108.8911992"
"3132",Indonesia,IDN,"850","2006","9191",Garut,"2",Jawa Barat,Garut,NA,Garut,"0",NA,earthquake,2006-0372,"-7.356977179","107.7845543"
"3132",Indonesia,IDN,"850","2006","9210",Gunung Kidul,"2",Yogyakarta,Gunung Kidul,NA,Gunungkidul,"0",NA,earthquake,2006-0372,"-7.994928318","110.6116574"
"3132",Indonesia,IDN,"850","2006","9705",Sukabumi,"2",Jawa Barat,Sukabumi,NA,Sukabumi,"0",NA,earthquake,2006-0372,"-7.075194493","106.7055944"
"3132",Indonesia,IDN,"850","2006","9846",Tasikmalaya,"2",Jawa Barat,Tasikmalaya,NA,Tasikmalaya,"0",NA,earthquake,2006-0372,"-7.496236966","108.1374781"
"3133",Indonesia,IDN,"850","2006","9136",Bima,"2",Nusa Tenggara Barat,Bima,NA,Bima,"0",NA,earthquake,2006-0705,"-8.457758462","118.5815451"
"3138",Indonesia,IDN,"850","2007","9052",Agam,"2",Sumatera Barat,Agam,NA,Agam,"0",NA,earthquake,2007-0087,"-0.253017414","100.1638496"
"3138",Indonesia,IDN,"850","2007","9158",Bukittinggi,"2",Sumatera Barat,Bukittinggi,NA,Bukittinggi,"0",NA,earthquake,2007-0087,"-0.271192256","100.3724237"
"3138",Indonesia,IDN,"850","2007","9476",Lima Puluh Kota,"2",Sumatera Barat,Lima Puluh Kota,NA,Limapuluhkoto,"0",NA,earthquake,2007-0087,"-0.001123325","100.5797914"
"3138",Indonesia,IDN,"850","2007","9581",Padang Panjang,"2",Sumatera Barat,Padang Panjang,NA,Padang Panjang,"0",NA,earthquake,2007-0087,"-0.45646021","100.4316316"
"3138",Indonesia,IDN,"850","2007","9585",Padang Pariaman,"2",Sumatera Barat,Padang Pariaman,NA,Padangpariaman,"0",NA,earthquake,2007-0087,"-0.60045085","100.2599837"
"3138",Indonesia,IDN,"850","2007","9625",Payakumbuh,"2",Sumatera Barat,Payakumbuh,NA,Payakumbuh,"0",NA,earthquake,2007-0087,"-0.235657242","100.6378594"
"3138",Indonesia,IDN,"850","2007","9692",Solok,"2",Sumatera Barat,Solok,NA,Solok,"0",NA,earthquake,2007-0087,"-0.96242172","100.8151226"
"3138",Indonesia,IDN,"850","2007","9833",Tanah Datar,"2",Sumatera Barat,Tanah Datar,NA,Tanahdatar,"0",NA,earthquake,2007-0087,"-0.46253189","100.5892528"
"3161",Indonesia,IDN,"850","2009","9525",Manokwari,"2",Papua Barat,Manokwari,NA,Manokwari,"0",NA,earthquake,2009-0001,"-1.108127918","133.5017725"
"3165",Indonesia,IDN,"850","2009","9069",Bandung,"2",Jawa Barat,Bandung,NA,Bandung Barat,"0",NA,earthquake,2009-0354,"-7.010682457","107.5260094"
"3165",Indonesia,IDN,"850","2009","9080",Banjar,"2",Jawa Barat,Banjar,NA,Banjar,"0",NA,earthquake,2009-0354,"-7.373601181","108.5527917"
"3165",Indonesia,IDN,"850","2009","9145",Kota Bogor,"2",Jawa Barat,Kota Bogor,NA,Bogor,"0",NA,earthquake,2009-0354,"-6.558990031","106.7681426"
"3165",Indonesia,IDN,"850","2009","9165",Ciamis,"2",Jawa Barat,Ciamis,NA,Ciamis,"0",NA,earthquake,2009-0354,"-7.435352047","108.4674829"
"3165",Indonesia,IDN,"850","2009","9167",Cianjur,"2",Jawa Barat,Cianjur,NA,Cianjur,"0",NA,earthquake,2009-0354,"-7.125962615","107.1552561"
"3165",Indonesia,IDN,"850","2009","9192",Garut,"2",Jawa Barat,Garut,NA,Garut,"0",NA,earthquake,2009-0354,"-7.356977179","107.7845543"
"3165",Indonesia,IDN,"850","2009","9451",Kuningan,"2",Jawa Barat,Kuningan,NA,Kuningan,"0",NA,earthquake,2009-0354,"-7.000979469","108.5601904"
"3165",Indonesia,IDN,"850","2009","9645",Purwakarta,"2",Jawa Barat,Purwakarta,NA,Purwakarta,"0",NA,earthquake,2009-0354,"-6.587498781","107.4435658"
"3165",Indonesia,IDN,"850","2009","9706",Sukabumi,"2",Jawa Barat,Sukabumi,NA,Sukabumi,"0",NA,earthquake,2009-0354,"-7.075194493","106.7055944"
"3165",Indonesia,IDN,"850","2009","9826",Sumedang,"2",Jawa Barat,Sumedang,NA,Sumedang,"0",NA,earthquake,2009-0354,"-6.822337424","107.9823666"
"3165",Indonesia,IDN,"850","2009","9847",Tasikmalaya,"2",Jawa Barat,Tasikmalaya,NA,Tasikmalaya,"0",NA,earthquake,2009-0354,"-7.496236966","108.1374781"
"3167",Indonesia,IDN,"850","2009","9053",Agam,"2",Sumatera Barat,Agam,NA,Agam,"0",NA,earthquake,2009-0421,"-0.253017414","100.1638496"
"3167",Indonesia,IDN,"850","2009","9160",Bukittinggi,"2",Sumatera Barat,Bukittinggi,NA,Kota Bukitinggi,"0",NA,earthquake,2009-0421,"-0.271192256","100.3724237"
"3167",Indonesia,IDN,"850","2009","9427",Kepulauan Mentawai,"2",Sumatera Barat,Kepulauan Mentawai,NA,Kepulauan Mentawai,"0",NA,earthquake,2009-0421,"-1.849610287","99.33656758"
"3167",Indonesia,IDN,"850","2009","9443",Solok,"2",Sumatera Barat,Solok,NA,Kota Solok,"0",NA,earthquake,2009-0421,"-0.764927306","100.6237406"
"3167",Indonesia,IDN,"850","2009","9477",Lima Puluh Kota,"2",Sumatera Barat,Lima Puluh Kota,NA,Limapuluhkoto,"0",NA,earthquake,2009-0421,"-0.001123325","100.5797914"
"3167",Indonesia,IDN,"850","2009","9580",Padang,"2",Sumatera Barat,Padang,NA,Kota Padang,"0",NA,earthquake,2009-0421,"-0.976679337","100.4454949"
"3167",Indonesia,IDN,"850","2009","9584",Padang Panjang,"2",Sumatera Barat,Padang Panjang,NA,Kota Padangpanjang,"0",NA,earthquake,2009-0421,"-0.45646021","100.4316316"
"3167",Indonesia,IDN,"850","2009","9586",Padang Pariaman,"2",Sumatera Barat,Padang Pariaman,NA,Padangpariaman,"0",NA,earthquake,2009-0421,"-0.60045085","100.2599837"
"3167",Indonesia,IDN,"850","2009","9616",Pariaman,"2",Sumatera Barat,Pariaman,NA,Kota Pariaman,"0",NA,earthquake,2009-0421,"-0.626483219","100.1548216"
"3167",Indonesia,IDN,"850","2009","9620",Pasaman,"2",Sumatera Barat,Pasaman,NA,Kota Pasaman,"0",NA,earthquake,2009-0421,"0.384546402","100.1105999"
"3167",Indonesia,IDN,"850","2009","9627",Payakumbuh,"2",Sumatera Barat,Payakumbuh,NA,Kota Payakumbuh,"0",NA,earthquake,2009-0421,"-0.235657242","100.6378594"
"3167",Indonesia,IDN,"850","2009","9668",Sawahlunto,"2",Sumatera Barat,Sawahlunto,NA,Sawahlunto/sijunjung,"0",NA,earthquake,2009-0421,"-0.687489715","101.0865638"
"3167",Indonesia,IDN,"850","2009","9696",Solok Selatan,"2",Sumatera Barat,Solok Selatan,NA,Solok Selatan,"0",NA,earthquake,2009-0421,"-1.402078997","101.2515426"
"3167",Indonesia,IDN,"850","2009","9834",Tanah Datar,"2",Sumatera Barat,Tanah Datar,NA,Tanahdatar,"0",NA,earthquake,2009-0421,"-0.46253189","100.5892528"
"3183",Indonesia,IDN,"850","2011","9392",Jayapura,"2",Papua,Jayapura,NA,Jayapura,"0",NA,earthquake,2011-0082,"-2.996104307","139.9761388"
"3183",Indonesia,IDN,"850","2011","9440",Kota Jayapura,"2",Papua,Kota Jayapura,NA,Muara Tami district,"0",NA,earthquake,2011-0082,"-2.658685493","140.786615"
"3194",Indonesia,IDN,"850","2012","9187",Donggala,"2",Sulawesi Tengah,Donggala,NA,Donggala,"0",NA,earthquake,2012-0398,"-0.919641281","119.8846648"
"3194",Indonesia,IDN,"850","2012","9618",Parigi Moutong,"2",Sulawesi Tengah,Parigi Moutong,NA,Parigimoutong,"0",NA,earthquake,2012-0398,"-0.001839562","120.4252295"
"3197",Indonesia,IDN,"850","2012","9146",Kota Bogor,"2",Jawa Barat,Kota Bogor,NA,Cibunian,"0",NA,earthquake,2012-0377,"-6.558990031","106.7681426"
"3197",Indonesia,IDN,"850","2012","9848",Tasikmalaya,"2",Jawa Barat,Tasikmalaya,NA,Pamijahan,"0",NA,earthquake,2012-0377,"-7.496236966","108.1374781"
"3207",Indonesia,IDN,"850","2013","9122",Bener Meriah,"2",Aceh,Bener Meriah,NA,Bener Meriah,"0",NA,earthquake,2013-0235,"4.764908656","96.9874346"
"3270",Iran,IRN,"630","1990","9914",Astara,"2",Gilan,Astara,NA,Astara,"0",NA,earthquake,1990-0034,"38.3658888","48.76990318"
"3270",Iran,IRN,"630","1990","10156",Mianeh,"2",East Azarbaijan,Mianeh,NA,Miane,"0",NA,earthquake,1990-0034,"37.47421473","47.67508945"
"3270",Iran,IRN,"630","1990","10190",Rasht,"2",Gilan,Rasht,NA,Rasht,"0",NA,earthquake,1990-0034,"37.29320034","49.67194504"
"3270",Iran,IRN,"630","1990","10214",Rudbar,"2",Gilan,Rudbar,NA,Rudbar,"0",NA,earthquake,1990-0034,"36.80719664","49.60477304"
"3270",Iran,IRN,"630","1990","10257",Tabriz,"2",East Azarbaijan,Tabriz,NA,Tabriz,"0",NA,earthquake,1990-0034,"37.7928439","45.98265018"
"3299",Iran,IRN,"630","1997","9934",Bojnurd,"2",North Khorasan,Bojnurd,NA,Bojnurd,"0",NA,earthquake,1997-0017,"37.43194958","57.90772623"
"3301",Iran,IRN,"630","1997","9929",Birjand,"2",South Khorasan,Birjand,NA,Birjand,"0",NA,earthquake,1997-0095,"33.72438996","59.66392405"
"3303",Iran,IRN,"630","1997","9930",Birjand,"2",South Khorasan,Birjand,NA,Birjand,"0",NA,earthquake,1997-0533,"33.72438996","59.66392405"
"3333",Iran,IRN,"630","2002","10061",Kabudarahang,"2",Hamadan,Kabudarahang,NA,Kabudarahang,"0",NA,earthquake,2002-0378,"35.39296972","48.36447452"
"3333",Iran,IRN,"630","2002","10191",Razan,"2",Hamadan,Razan,NA,Razan,"0",NA,earthquake,2002-0378,"35.34313843","49.03312515"
"3340",Iran,IRN,"630","2003","9964",Darab,"2",Fars,Darab,NA,Darab county,"0",NA,earthquake,2003-0438,"28.43247947","54.69121992"
"3340",Iran,IRN,"630","2003","10060",Jahrom,"2",Fars,Jahrom,NA,Jahrom,"0",NA,earthquake,2003-0438,"28.70481833","53.30370727"
"3342",Iran,IRN,"630","2003","9918",Bam,"2",Kerman,Bam,NA,Bam,"0",NA,earthquake,2003-0630,"29.20420416","58.56756473"
"3351",Iran,IRN,"630","2005","10215",Saravan,"2",Sistan And Baluchestan,Saravan,NA,Saravan region,"0",NA,earthquake,2005-0738,"27.31205401","62.26980714"
"3357",Iran,IRN,"630","2006","9969",Dorud,"2",Lorestan,Dorud,NA,Dorud,"0",NA,earthquake,2006-0153,"33.55428749","49.06247343"
"3357",Iran,IRN,"630","2006","10091",Khorramabad,"2",Lorestan,Khorramabad,NA,Khorramabad,"0",NA,earthquake,2006-0153,"33.5499092","48.296233"
"3371",Iran,IRN,"630","2010","10092",Khorramabad,"2",Lorestan,Khorramabad,NA,Khorramabad,"0",NA,earthquake,2010-0591,"33.5499092","48.296233"
"3372",Iran,IRN,"630","2010","9919",Bam,"2",Kerman,Bam,NA,Bam county,"0",NA,earthquake,2010-0645,"29.20420416","58.56756473"
"3374",Iran,IRN,"630","2012","9903",Ahar,"2",East Azarbaijan,Ahar,NA,Ahar,"0",NA,earthquake,2012-0275,"38.59341987","46.74820163"
"3374",Iran,IRN,"630","2012","10261",Tabriz,"2",East Azarbaijan,Tabriz,NA,Tabriz,"0",NA,earthquake,2012-0275,"37.7928439","45.98265018"
"3376",Iran,IRN,"630","2012","9933",Birjand,"2",South Khorasan,Birjand,NA,Birjand,"0",NA,earthquake,2012-0502,"33.72438996","59.66392405"
"3433",Italy,ITA,"325","1980","10366",Avellino,"2",Campania,Avellino,NA,Avellino,"0",NA,earthquake,1980-0103,"40.97700999","15.07831076"
"3433",Italy,ITA,"325","1980","10393",Caserta,"2",Campania,Caserta,NA,Caserta,"0",NA,earthquake,1980-0103,"41.21760249","14.16034434"
"3636",Japan,JPN,"740","2003","11016",Ishinomaki,"2",Miyagi,Ishinomaki,NA,Ishinomaki,"0",NA,earthquake,2003-0354,"38.48336702","141.376057"
"3636",Japan,JPN,"740","2003","11469",Sendai,"2",Miyagi,Sendai,NA,Sendai,"0",NA,earthquake,2003-0354,"38.30088356","140.7520942"
"3665",Japan,JPN,"740","2007","11358",Ojiya,"2",Niigata,Ojiya,NA,Ojiya,"0",NA,earthquake,2007-0258,"37.28700935","138.8049506"
"3665",Japan,JPN,"740","2007","11648",Tsubame,"2",Niigata,Tsubame,NA,Tsubame,"0",NA,earthquake,2007-0258,"37.66084747","138.895094"
"3668",Japan,JPN,"740","2008","11141",Kurihara,"2",Miyagi,Kurihara,NA,Kurihara,"0",NA,earthquake,2008-0242,"38.80762367","140.944564"
"3668",Japan,JPN,"740","2008","11235",Morioka,"2",Iwate,Morioka,NA,Morioka,"0",NA,earthquake,2008-0242,"39.74259243","141.269767"
"3668",Japan,JPN,"740","2008","11470",Sendai,"2",Miyagi,Sendai,NA,Sendai,"0",NA,earthquake,2008-0242,"38.30088356","140.7520942"
"3878",Kyrgyzstan,KGZ,"703","1997","12031",Ak-Talaa,"2",Naryn,Ak-Talaa,NA,Ak-Tala district,"0",NA,earthquake,1997-0028,"41.24297006","74.7752938"
"3881",Kyrgyzstan,KGZ,"703","2006","12046",Kochkor,"2",Naryn,Kochkor,NA,Semiz-Bel,"0",NA,earthquake,2006-0694,"42.11543106","75.59874317"
"3883",Kyrgyzstan,KGZ,"703","2008","12033",Alai,"2",Osh,Alai,NA,Alay,"0",NA,earthquake,2008-0001,"39.85336593","73.45060804"
"3883",Kyrgyzstan,KGZ,"703","2008","12045",Kara-Suu,"2",Osh,Kara-Suu,NA,Karasuu,"0",NA,earthquake,2008-0001,"40.34348656","73.04052632"
"3883",Kyrgyzstan,KGZ,"703","2008","12053",Nookat,"2",Osh,Nookat,NA,Nookat,"0",NA,earthquake,2008-0001,"40.12189109","72.60961942"
"3884",Kyrgyzstan,KGZ,"703","2008","12038",Chong-Alay,"2",Osh,Chong-Alay,NA,Chong-Alay,"0",NA,earthquake,2008-0454,"39.5335892","72.24333292"
"4183",Mexico,MEX,"70","1995","13123",Cuajinicuilapa,"2",Guerrero,Cuajinicuilapa,NA,Cuajinicuilapa,"0",NA,earthquake,1995-0203,"16.4890745","-98.51420656"
"4183",Mexico,MEX,"70","1995","13170",Igualapa,"2",Guerrero,Igualapa,NA,Igualapa,"0",NA,earthquake,1995-0203,"16.83015734","-98.432127"
"4183",Mexico,MEX,"70","1995","13301",Ometepec,"2",Guerrero,Ometepec,NA,Ometepec,"0",NA,earthquake,1995-0203,"16.70073129","-98.28498802"
"4229",Mexico,MEX,"70","2003","13193",Manzanillo,"2",Colima,Manzanillo,NA,Manzanillo,"0",NA,earthquake,2003-0039,"19.16956458","-104.3099804"
"4229",Mexico,MEX,"70","2003","13305",Pihuamo,"2",Jalisco,Pihuamo,NA,Pihuamo,"0",NA,earthquake,2003-0039,"19.11714571","-103.3856275"
"4229",Mexico,MEX,"70","2003","13391",Tonila,"2",Jalisco,Tonila,NA,Tonila,"0",NA,earthquake,2003-0039,"19.41966712","-103.5266073"
"4229",Mexico,MEX,"70","2003","13427",Villa De Alvarez,"2",Colima,Villa De Alvarez,NA,Villa de Alvarez,"0",NA,earthquake,2003-0039,"19.28542011","-103.8299909"
"4375",Mozambique,MOZ,"541","2006","13701",Espungabera,"3",Manica,Mossurize,Espungabera,Espungabera,"0",NA,earthquake,2006-0100,"-20.5245659","32.80206718"
"4375",Mozambique,MOZ,"541","2006","13711",Gondola,"2",Manica,Gondola,NA,Chimoio,"0",NA,earthquake,2006-0100,"-19.15146872","33.6613372"
"4375",Mozambique,MOZ,"541","2006","13740",Machaze,"2",Manica,Machaze,NA,Machaze,"0",NA,earthquake,2006-0100,"-21.04207314","33.27193835"
"4409",Myanmar,MMR,"775","2004","13951",Labutta,"3",Ayeyarwady,Myoungmya,Labutta,Labutta,"0",NA,earthquake,2004-0659,"16.05122397","94.88314448"
"4409",Myanmar,MMR,"775","2004","13989",Pharpon,"2",Ayeyarwady,Pharpon,NA,Pya Pon,"0",NA,earthquake,2004-0659,"16.18068417","95.54610362"
"4418",Myanmar,MMR,"775","2011","13974",Mong Hpayak,"3",Shan,Mongphat,Mong Hpayak,Tarlay,"0",NA,earthquake,2011-0090,"20.94094871","99.82442708"
"4418",Myanmar,MMR,"775","2011","14027",Tarchilaik,"2",Shan,Tarchilaik,NA,Tachilek,"0",NA,earthquake,2011-0090,"20.68093331","100.0284512"
"4421",Myanmar,MMR,"775","2012","13946",Kyaukse,"2",Mandalay,Kyaukse,NA,Kyaukse,"0",NA,earthquake,2012-0417,"21.60615952","96.24555997"
"4440",Nepal,NPL,"790","1980","14246",Mahakali,"2",Far-Western,Mahakali,NA,Mahakali,"0",NA,earthquake,1980-0071,"29.50751599","80.57209181"
"4440",Nepal,NPL,"790","1980","14309",Rapti,"2",Mid-Western,Rapti,NA,Rapti zones,"0",NA,earthquake,1980-0071,"27.96523787","82.41155673"
"4440",Nepal,NPL,"790","1980","14347",Seti,"2",Far-Western,Seti,NA,Seti,"0",NA,earthquake,1980-0071,"29.11195352","81.30014326"
"4479",Nepal,NPL,"790","2015","14172",Dolakha,"3",Central,Janakpur,Dolakha,Dolakha,"0",NA,earthquake,2015-0175,"27.78583782","86.20023138"
"4689",Pakistan,PAK,"770","1991","14993",Chitral,"3",N.W.F.P.,Malakand,Chitral,Chitral,"0",NA,earthquake,1991-0033,"36.22647705","72.23618133"
"4689",Pakistan,PAK,"770","1991","15151",Peshawar,"2",N.W.F.P.,Peshawar,NA,Peshawar area,"0",NA,earthquake,1991-0033,"34.01301839","71.79335279"
"4690",Pakistan,PAK,"770","1992","15074",Kohat,"2",N.W.F.P.,Kohat,NA,Kohat,"0",NA,earthquake,1992-0202,"33.32515236","71.24675238"
"4690",Pakistan,PAK,"770","1992","15152",Peshawar,"2",N.W.F.P.,Peshawar,NA,Peshawar,"0",NA,earthquake,1992-0202,"34.01301839","71.79335279"
"4708",Pakistan,PAK,"770","1998","15154",Peshawar,"2",N.W.F.P.,Peshawar,NA,Peshawar,"0",NA,earthquake,1998-0579,"34.01301839","71.79335279"
"4708",Pakistan,PAK,"770","1998","15252",Swabi,"3",N.W.F.P.,Mardan,Swabi,Yar Husain,"0",NA,earthquake,1998-0579,"34.13624248","72.46791818"
"4715",Pakistan,PAK,"770","2001","14947",Badin,"3",Sind,Hyderabad,Badin,Badin,"0",NA,earthquake,2001-0033,"24.72000106","68.86415853"
"4736",Pakistan,PAK,"770","2005","15102",Mardan,"2",N.W.F.P.,Mardan,NA,Gujrat Tehsil,"0",NA,earthquake,2005-0575,"34.30602493","72.36231386"
"4736",Pakistan,PAK,"770","2005","15210",Rawalpindi,"2",Punjab,Rawalpindi,Rawalpindi Tehsil,Rawalpindi Tehsil,"0",NA,earthquake,2005-0575,"33.19598911","72.72281404"
"4736",Pakistan,PAK,"770","2005","15213",Shangla,"3",N.W.F.P.,Malakand,Shangla,Shangla district,"0",NA,earthquake,2005-0575,"34.80951109","72.72467592"
"4736",Pakistan,PAK,"770","2005","15269",Vehari,"3",Punjab,Multan,Vehari,Islamabad Tehsil,"0",NA,earthquake,2005-0575,"29.98712978","72.37846522"
"4753",Pakistan,PAK,"770","2008","15164",Pishin,"3",Baluchistan,Quetta,Pishin,Pishin,"0",NA,earthquake,2008-0500,"30.65693176","67.08361998"
"4753",Pakistan,PAK,"770","2008","15273",Ziarat,"3",Baluchistan,Sibi,Ziarat,Ziarat,"0",NA,earthquake,2008-0500,"30.42573003","67.55164056"
"4767",Pakistan,PAK,"770","2013","14988",Chagai,"3",Baluchistan,Quetta,Chagai,Chagai district,"0",NA,earthquake,2013-0099,"29.03325058","63.58102591"
"4767",Pakistan,PAK,"770","2013","15055",Karachi,"2",Sind,Karachi,NA,Karachi province,"0",NA,earthquake,2013-0099,"25.07840686","67.18539142"
"4767",Pakistan,PAK,"770","2013","15066",Kharan,"3",Baluchistan,Kalat,Kharan,Kharan District,"0",NA,earthquake,2013-0099,"27.95551464","64.63904853"
"4769",Pakistan,PAK,"770","2013","14989",Chagai,"3",Baluchistan,Quetta,Chagai,Chaghi,"0",NA,earthquake,2013-0381,"29.03325058","63.58102591"
"4788",Panama,PAN,"95","1991","15294",Bocas Del Toro,"2",Bocas Del Toro,Bocas Del Toro,NA,Bocas del Toro area,"0",NA,earthquake,1991-0773,"9.212808761","-82.25426198"
"4898",Peru,PER,"135","1996","15687",Nazca,"2",Ica,Nazca,NA,Nazca,"0",NA,earthquake,1996-0261,"-14.94138893","-75.08033017"
"4898",Peru,PER,"135","1996","15691",Palpa,"2",Ica,Palpa,NA,Palpa,"0",NA,earthquake,1996-0261,"-14.36880102","-75.17406744"
"4917",Peru,PER,"135","2005","15545",Candarave,"2",Tacna,Candarave,NA,Candarave,"0",NA,earthquake,2005-0321,"-17.11319893","-70.30184251"
"4917",Peru,PER,"135","2005","15584",General Sanchez Cerro,"2",Moquegua,General Sanchez Cerro,NA,General Sanchez Cerro,"0",NA,earthquake,2005-0321,"-16.45789711","-70.83159859"
"4917",Peru,PER,"135","2005","15623",Ilo,"2",Moquegua,Ilo,NA,Ilo,"0",NA,earthquake,2005-0321,"-17.57544759","-71.21182078"
"4917",Peru,PER,"135","2005","15628",Jorge Basadre,"2",Tacna,Jorge Basadre,NA,Jorge Basadre,"0",NA,earthquake,2005-0321,"-17.57995467","-70.73037637"
"4917",Peru,PER,"135","2005","15675",Mariscal Nieto,"2",Moquegua,Mariscal Nieto,NA,Mariscal Nieto,"0",NA,earthquake,2005-0321,"-17.01249144","-70.78631563"
"4917",Peru,PER,"135","2005","15743",Tarata,"2",Tacna,Tarata,NA,Tarata,"0",NA,earthquake,2005-0321,"-17.42026311","-69.9708771"
"4918",Peru,PER,"135","2005","15643",Lamas,"2",San Martin,Lamas,NA,Lamas area,"0",NA,earthquake,2005-0558,"-6.267420355","-76.44021423"
"4918",Peru,PER,"135","2005","15686",Moyobamba,"2",San Martin,Moyobamba,NA,Moyobamba,"0",NA,earthquake,2005-0558,"-5.86655706","-77.15073162"
"4920",Peru,PER,"135","2007","15559",Chincha,"2",Ica,Chincha,NA,Chincha,"0",NA,earthquake,2007-0362,"-13.31690939","-75.94096508"
"4926",Peru,PER,"135","2012","15560",Chincha,"2",Ica,Chincha,NA,Chincha,"0",NA,earthquake,2012-0020,"-13.31690939","-75.94096508"
"5275",Philippines,PHL,"840","2009","17922",Norala,"2",South Cotabato,Norala,NA,Norala,"0",NA,earthquake,2009-0404,"6.52326182","124.6765858"
"5275",Philippines,PHL,"840","2009","18583",Santo Nino,"2",South Cotabato,Santo Nino,NA,Santo Nino,"0",NA,earthquake,2009-0404,"11.93095475","124.431696"
"5441",Romania,ROU,"360","1991","19397",Voiteg,"2",Timis,Voiteg,NA,Vouteg,"0",NA,earthquake,1991-0399,"45.48059687","21.2715995"
"5495",Russia,RUS,"365","1995","19527",Okhinskiy Rayon,"2",Sakhalin,Okhinskiy Rayon,NA,Neftegorsk,"0",NA,earthquake,1995-0097,"52.98239824","142.4431105"
"5529",Russia,RUS,"365","2003","19489",Kosh-Agachskiy Rayon,"2",Gorno-Altay,Kosh-Agachskiy Rayon,NA,Kosh-Agach,"0",NA,earthquake,2003-0497,"49.77708098","87.98849596"
"5529",Russia,RUS,"365","2003","19532",Ongudayskiy Rayon,"2",Gorno-Altay,Ongudayskiy Rayon,NA,Ongudai,"0",NA,earthquake,2003-0497,"50.71647712","86.46786157"
"5529",Russia,RUS,"365","2003","19572",Shebalinskiy Rayon,"2",Gorno-Altay,Shebalinskiy Rayon,NA,Shebalino,"0",NA,earthquake,2003-0497,"51.31996037","85.60089561"
"5542",Russia,RUS,"365","2006","19451",Elizovskiy Rayon,"2",Kamchatka,Elizovskiy Rayon,NA,Koryakskiy,"0",NA,earthquake,2006-0214,"53.66131137","159.1371804"
"5569",Rwanda,RWA,"517","2008","19642",Nyamasheke,"2",Iburengerazuba,Nyamasheke,NA,Nyamasheke,"0",NA,earthquake,2008-0040,"-2.353312146","29.15517674"
"5569",Rwanda,RWA,"517","2008","19652",Rusizi,"2",Iburengerazuba,Rusizi,NA,Cyangugu,"0",NA,earthquake,2008-0040,"-2.561270536","29.08046151"
"5663",Slovenia,SVN,"349","1998","20004",Bohinj,"2",Gorenjska,Bohinj,NA,Bojinj,"0",NA,earthquake,1998-0110,"46.29687821","13.91434431"
"5663",Slovenia,SVN,"349","1998","20006",Bovec,"2",Goriska,Bovec,NA,Bovec,"0",NA,earthquake,1998-0110,"46.36207173","13.62691301"
"5663",Slovenia,SVN,"349","1998","20013",Jesenice,"2",Gorenjska,Jesenice,NA,Jesenice,"0",NA,earthquake,1998-0110,"46.45021478","14.07576428"
"5663",Slovenia,SVN,"349","1998","20014",Kobarid,"2",Goriska,Kobarid,NA,Kobarid,"0",NA,earthquake,1998-0110,"46.25496658","13.54942002"
"5663",Slovenia,SVN,"349","1998","20019",Tolmin,"2",Goriska,Tolmin,NA,Tolmin,"0",NA,earthquake,1998-0110,"46.17249532","13.8027914"
"5664",Slovenia,SVN,"349","2004","20007",Bovec,"2",Goriska,Bovec,NA,Bovec area,"0",NA,earthquake,2004-0670,"46.36207173","13.62691301"
"5664",Slovenia,SVN,"349","2004","20015",Kobarid,"2",Goriska,Kobarid,NA,Kobarid,"0",NA,earthquake,2004-0670,"46.25496658","13.54942002"
"5683",Solomon Islands,SLB,"940","2007","20024",Gizo,"2",Western,Gizo,NA,Gizo,"0",NA,earthquake,2007-0127,"-8.076715526","156.804898"
"5683",Solomon Islands,SLB,"940","2007","20056",Munda,"2",Western,Munda,NA,Munda,"0",NA,earthquake,2007-0127,"-8.212755887","157.3214936"
"5683",Solomon Islands,SLB,"940","2007","20057",Noro,"2",Western,Noro,NA,Noro,"0",NA,earthquake,2007-0127,"-8.236256175","157.2113381"
"5683",Solomon Islands,SLB,"940","2007","20063",Simbo,"2",Western,Simbo,NA,Simbo,"0",NA,earthquake,2007-0127,"-8.278284652","156.5345538"
"5710",Somalia,SOM,"520","2004","20084",Baraawe,"2",Shabeellaha Hoose,Baraawe,NA,Baraawe,"0",NA,earthquake,2004-0659,"1.085117292","43.83251356"
"5710",Somalia,SOM,"520","2004","20148",Marka,"2",Shabeellaha Hoose,Marka,NA,Marka,"0",NA,earthquake,2004-0659,"1.722400881","44.70082352"
"5797",Uzbekistan,UZB,"365","1984","26239",Jondor,"2",Bukhoro,Jondor,NA,Gazli,"1",USSR,earthquake,1984-0028,"39.9528832","63.65083945"
"5810",Kyrgyzstan,KGZ,"365","1990","12066",Uzgen,"2",Osh,Uzgen,NA,Uzgen,"1",USSR,earthquake,1990-0601,"40.83111421","73.57074979"
"5815",Georgia,GEO,"372","1991","6744",Oni,"2",Racha-Lechkhumi-Kvemo Svaneti,Oni,NA,Oni,"0",NA,earthquake,1991-0117,"42.62247376","43.53697709"
"6095",Taiwan,TWN,"713","2010","21054",Chiayi,"2",Taiwan,Chiayi,NA,Jiayi,"0",NA,earthquake,2010-0668,"23.47538781","120.4471678"
"6102",Taiwan,TWN,"713","2013","21104",Nantou,"2",Taiwan,Nantou,NA,Nantou,"0",NA,earthquake,2013-0206,"23.83767044","120.9882101"
"6102",Taiwan,TWN,"713","2013","21179",Yulin,"2",Taiwan,Yulin,NA,Yunlin,"0",NA,earthquake,2013-0206,"23.68452535","120.3896748"
"6117",Tajikistan,TJK,"702","2000","21191",Farkhor,"2",Khatlon,Farkhor,NA,Farkhor region,"0",NA,earthquake,2000-0743,"37.52561005","69.30318254"
"6131",Tajikistan,TJK,"702","2006","21254",Panj,"2",Khatlon,Panj,NA,Panj,"0",NA,earthquake,2006-0405,"37.29258411","69.15987668"
"6131",Tajikistan,TJK,"702","2006","21257",Qumsangir,"2",Khatlon,Qumsangir,NA,Qumsangir,"0",NA,earthquake,2006-0405,"37.32925794","68.71424491"
"6135",Tajikistan,TJK,"702","2010","21293",Vanj,"2",Gorno-Badakhshan,Vanj,NA,Vanj,"0",NA,earthquake,2010-0002,"38.40660521","71.79300219"
"6140",Tajikistan,TJK,"702","2012","21248",Nurobod,"2",Tadzhikistan Territories,Nurobod,NA,Nurobod,"0",NA,earthquake,2012-0151,"38.82995036","70.07952695"
"6140",Tajikistan,TJK,"702","2012","21263",Rasht,"2",Tadzhikistan Territories,Rasht,NA,Rasht,"0",NA,earthquake,2012-0151,"39.17531229","70.41432678"
"6140",Tajikistan,TJK,"702","2012","21286",Tavildara,"2",Tadzhikistan Territories,Tavildara,NA,Tavildara,"0",NA,earthquake,2012-0151,"38.79637109","71.20486349"
"6341",Turkey,TUR,"640","1983","22373",Horasan,"2",Erzurum,Horasan,NA,Horasan,"0",NA,earthquake,1983-0136,"40.0382095","42.21032858"
"6341",Turkey,TUR,"640","1983","22452",Pasinler,"2",Erzurum,Pasinler,NA,Pasinler,"0",NA,earthquake,1983-0136,"40.00152851","41.65465827"
"6356",Turkey,TUR,"640","1995","22321",Dinar,"2",Afyon,Dinar,NA,Dinar,"0",NA,earthquake,1995-0233,"38.14066119","30.24894532"
"6356",Turkey,TUR,"640","1995","22353",Evciler,"2",Afyon,Evciler,NA,Evciler,"0",NA,earthquake,1995-0233,"38.0307137","29.8723986"
"6373",Turkey,TUR,"640","2000","22447",Orta,"2",Cankiri,Orta,NA,Orta,"0",NA,earthquake,2000-0291,"40.6359097","33.09340026"
"6383",Turkey,TUR,"640","2003","22475",Seferihisar,"2",Izmir,Seferihisar,NA,Seferihisar,"0",NA,earthquake,2003-0783,"38.16915221","26.87577741"
"6390",Turkey,TUR,"640","2004","22264",Askale,"2",Erzurum,Askale,NA,Askale,"0",NA,earthquake,2004-0132,"39.91564738","40.63008854"
"6409",Turkey,TUR,"640","2010","22395",Karakocan,"2",Elazig,Karakocan,NA,Basyurt,"0",NA,earthquake,2010-0093,"38.99504208","40.11162815"
"6409",Turkey,TUR,"640","2010","22420",Kovancilar,"2",Elazig,Kovancilar,NA,Kovancilar district,"0",NA,earthquake,2010-0093,"38.7516072","39.83654811"
"6481",United Kingdom,GBR,"200","1990","22885",Powys,"2",Wales,Powys,NA,Powys,"0",NA,earthquake,1990-0193,"52.30815873","-3.405021081"
"6481",United Kingdom,GBR,"200","1990","22979",Wrexham,"2",Wales,Wrexham,NA,Wrexham,"0",NA,earthquake,1990-0193,"52.96033858","-3.057336644"
"6538",United States,USA,"2","1964","23081",Anchorage,"2",Alaska,Anchorage,NA,Anchorage,"0",NA,earthquake,1964-0021,"61.14927934","-149.1075655"
"6582",United States,USA,"2","1983","23213",Bonneville,"2",Idaho,Bonneville,NA,Eastern Idaho,"0",NA,earthquake,1983-0514,"43.38825553","-111.6141602"
"6582",United States,USA,"2","1983","23473",Custer,"2",Idaho,Custer,NA,Borah Peak,"0",NA,earthquake,1983-0514,"38.10827566","-105.3648"
"6651",United States,USA,"2","1989","23198",Berkeley,"2",California,Berkeley,NA,Berkeley,"0",NA,earthquake,1989-0133,"33.19613971","-79.95107548"
"6651",United States,USA,"2","1989","25519",San Benito,"2",California,San Benito,NA,Holister,"0",NA,earthquake,1989-0133,"36.6060511","-121.0743497"
"6651",United States,USA,"2","1989","25525",San Francisco,"2",California,San Francisco,NA,San Francisco,"0",NA,earthquake,1989-0133,"37.7552392","-122.4450135"
"6651",United States,USA,"2","1989","25531",San Mateo,"2",California,San Mateo,NA,San Mateo,"0",NA,earthquake,1989-0133,"37.42207849","-122.3310138"
"6651",United States,USA,"2","1989","25537",Santa Cruz,"2",California,Santa Cruz,NA,Santa Cruz,"0",NA,earthquake,1989-0133,"31.52396318","-110.8452028"
"6760",United States,USA,"2","1994","24252",Los Angeles,"2",California,Los Angeles,NA,Los Angeles,"0",NA,earthquake,1994-0002,"34.32090698","-118.2275975"
"6760",United States,USA,"2","1994","25282",Orange,"2",California,Orange,NA,Orange,"0",NA,earthquake,1994-0002,"33.70274935","-117.7620186"
"6760",United States,USA,"2","1994","25521",San Bernardino,"2",California,San Bernardino,NA,San Bernardino Counties,"0",NA,earthquake,1994-0002,"34.84275635","-116.1806586"
"6760",United States,USA,"2","1994","25922",Ventura,"2",California,Ventura,NA,Ventura,"0",NA,earthquake,1994-0002,"34.45823545","-119.0849008"
"6892",United States,USA,"2","2001","24187",King,"2",Washington,King,NA,Seattle,"0",NA,earthquake,2001-0099,"33.61613912","-100.2591841"
"6892",United States,USA,"2","2001","25417",Pierce,"2",Washington,Pierce,NA,Tacoma,"0",NA,earthquake,2001-0099,"31.35766802","-82.21197629"
"6892",United States,USA,"2","2001","25886",Thurston,"2",Washington,Thurston,NA,Olympia,"0",NA,earthquake,2001-0099,"42.15943742","-96.54454216"
"7138",United States,USA,"2","2014","24784",Napa,"2",California,Napa,NA,Napa Valley,"0",NA,earthquake,2014-0318,"38.50776374","-122.3313401"
"7138",United States,USA,"2","2014","25564",Solano,"2",California,Solano,NA,Mare Island,"0",NA,earthquake,2014-0318,"38.2793425","-121.9301119"
"7138",United States,USA,"2","2014","25567",Sonoma,"2",California,Sonoma,NA,Sonoma,"0",NA,earthquake,2014-0318,"38.52896683","-122.8880389"
"2835",India,IND,"750","2004","8638",Puducherry,"1",Puducherry,Puducherry,NA,Puducherry,"0",NA,earthquake,2004-0659,"11.88265788","78.86498023"
"3014",Indonesia,IDN,"850","1985","9599",Papua,"1",Papua,Papua,NA,Eastern Irian Jaya,"0",NA,earthquake,1985-0110,"-4.662877994","138.6911071"
"3183",Indonesia,IDN,"850","2011","9611",Papua,"1",Papua,Papua,NA,Papua province,"0",NA,earthquake,2011-0082,"-4.662877994","138.6911071"
"87",Afghanistan,AFG,"700","2013","215",Kuz Kunar,"2",Nangarhar,Kuz Kunar,NA,Kuz Kunar,"0",NA,earthquake,2013-0151,"34.57501282","70.55231721"
"268",Australia,AUS,"900","1968","1055",Cunderdin,"2",Western Australia,Cunderdin,NA,Meckering,"0",NA,earthquake,1968-0077,"-31.59958132","117.1557197"
"408",Azerbaijan,AZE,"373","1999","1440",Agdas,"2",Aran,Agdas,NA,Agdash,"0",NA,earthquake,1999-0196,"40.56465114","47.3876576"
"408",Azerbaijan,AZE,"373","1999","1457",Goycay,"2",Aran,Goycay,NA,Geokchai,"0",NA,earthquake,1999-0196,"40.56164507","47.82220899"
"413",Azerbaijan,AZE,"373","2012","1477",Qax,"2",Shaki-Zaqatala,Qax,NA,Balaken-Gakh-Zagatala,"0",NA,earthquake,2012-0191,"41.30312017","46.86040742"
"413",Azerbaijan,AZE,"373","2012","1500",Zaqatala,"2",Shaki-Zaqatala,Zaqatala,NA,Zaqatala,"0",NA,earthquake,2012-0191,"41.58892772","46.68784878"
"414",Azerbaijan,AZE,"373","2012","1478",Qax,"2",Shaki-Zaqatala,Qax,NA,Gakh,"0",NA,earthquake,2012-0545,"41.30312017","46.86040742"
"1691",Colombia,COL,"100","1979","5234",San Juan De Pasto,"2",Narino,San Juan De Pasto,NA,Pasto,"0",NA,earthquake,1979-0113,"1.061885647","-77.22296294"
"1691",Colombia,COL,"100","1979","5291",Tumaco,"2",Narino,Tumaco,NA,Tumaco Island,"0",NA,earthquake,1979-0113,"1.583880854","-78.66412217"
"1704",Colombia,COL,"100","1991","5257",Santiago De Cali,"2",Valle Del Cauca,Santiago De Cali,NA,Cali,"0",NA,earthquake,1991-0390,"3.399817575","-76.59957733"
"1705",Colombia,COL,"100","1992","5148",Murindo,"2",Antioquia,Murindo,NA,Murindo,"0",NA,earthquake,1992-0151,"6.792449758","-76.72032114"
"1731",Colombia,COL,"100","2004","5258",Santiago De Cali,"2",Valle Del Cauca,Santiago De Cali,NA,Cali,"0",NA,earthquake,2004-0575,"3.399817575","-76.59957733"
"1823",Costa Rica,CRI,"94","2012","5357",Alfaro Ruiz,"2",Alajuela,Alfaro Ruiz,NA,Alafaro Ruiz,"0",NA,earthquake,2012-0343,"10.22768878","-84.40827792"
"2061",El Salvador,SLV,"92","2001","6233",Nueva San Salvador,"2",La Libertad,Nueva San Salvador,NA,Nueva San Salvador,"0",NA,earthquake,2001-0013,"13.64272434","-89.30548101"
"2299",Germany,DEU,"260","1992","6824",Koln,"2",Nordrhein-Westfalen,Koln,NA,Koln,"0",NA,earthquake,1992-0093,"50.94566688","6.973218552"
"2434",Guatemala,GTM,"90","1985","7200",Uspantan,"2",Quiche,Uspantan,NA,San Miguel Uspantan,"0",NA,earthquake,1985-0120,"15.46655556","-90.81766947"
"2797",India,IND,"750","2001","8248",Kachchh,"2",Gujarat,Kachchh,NA,Kachch-Bhuj,"0",NA,earthquake,2001-0033,"23.62539958","69.96716133"
"2835",India,IND,"750","2004","8555",Nicobar Islands,"2",Andaman And Nicobar,Nicobar Islands,NA,Nicobar Island,"0",NA,earthquake,2004-0659,"7.525464224","93.59909377"
"3035",Indonesia,IDN,"850","1990","9193",Gayo Lues,"2",Aceh,Gayo Lues,NA,Bangkejeren,"0",NA,earthquake,1990-0593,"3.981911266","97.35743629"
"3041",Indonesia,IDN,"850","1992","9190",Flores Timur,"2",Nusa Tenggara Timur,Flores Timur,NA,East Flores,"0",NA,earthquake,1992-0163,"-8.365094236","122.9444229"
"3072",Indonesia,IDN,"850","1998","9212",Halmahera Tengah,"2",Maluku Utara,Halmahera Tengah,NA,Halmahera Tengah,"0",NA,earthquake,1998-0403,"0.40274103","128.2821957"
"3072",Indonesia,IDN,"850","1998","9431",Kepulauan Sula,"2",Maluku Utara,Kepulauan Sula,NA,Sula Island,"0",NA,earthquake,1998-0403,"-1.872904242","125.151639"
"3079",Indonesia,IDN,"850","2000","9421",Karawang,"2",Jawa Barat,Karawang,NA,Ciranggon,"0",NA,earthquake,2000-0449,"-6.252003326","107.353927"
"3109",Indonesia,IDN,"850","2004","9419",Karangasem,"2",Bali,Karangasem,NA,Karangasem district,"0",NA,earthquake,2004-0001,"-8.374177685","115.5301695"
"3167",Indonesia,IDN,"850","2009","9621",Pasaman Barat,"2",Sumatera Barat,Pasaman Barat,NA,Kota Pasaman Barat,"0",NA,earthquake,2009-0421,"0.206952988","99.6781161"
"3167",Indonesia,IDN,"850","2009","9636",Pesisir Selatan,"2",Sumatera Barat,Pesisir Selatan,NA,Pesisir Selatan,"0",NA,earthquake,2009-0421,"-1.73828936","100.8806743"
"3207",Indonesia,IDN,"850","2013","9048",Aceh Tengah,"2",Aceh,Aceh Tengah,NA,Aceh Tengah,"0",NA,earthquake,2013-0235,"4.530069088","96.85899448"
"3668",Japan,JPN,"740","2008","11425",Oshu,"2",Iwate,Oshu,NA,Oshu,"0",NA,earthquake,2008-0242,"39.12744512","141.0977895"
"4187",Mexico,MEX,"70","1995","13037",Alvaro Obregon,"2",Distrito Federal,Alvaro Obregon,NA,Alvaro Obregon,"0",NA,earthquake,1995-0454,"19.28098007","-99.19713787"
"4920",Peru,PER,"135","2007","15699",Pisco,"2",Ica,Pisco,NA,Pisco,"0",NA,earthquake,2007-0362,"-13.80421645","-75.94368704"
"4926",Peru,PER,"135","2012","15700",Pisco,"2",Ica,Pisco,NA,Pisco,"0",NA,earthquake,2012-0020,"-13.80421645","-75.94368704"
"6095",Taiwan,TWN,"713","2010","21162",Taitung,"2",Taiwan,Taitung,NA,Taitung,"0",NA,earthquake,2010-0668,"22.85665323","121.0407154"
"6341",Turkey,TUR,"640","1983","22441",Narman,"2",Erzurum,Narman,NA,Narman,"0",NA,earthquake,1983-0136,"40.3038737","41.87679564"
"6373",Turkey,TUR,"640","2000","22310",Cerkes,"2",Cankiri,Cerkes,NA,Cerkes,"0",NA,earthquake,2000-0291,"40.83111254","32.81619635"
"6383",Turkey,TUR,"640","2003","22415",Konak,"2",Izmir,Konak,NA,Konak district,"0",NA,earthquake,2003-0783,"38.38447364","27.13067799"
"6390",Turkey,TUR,"640","2004","22376",Ilica,"2",Erzurum,Ilica,NA,Ilica,"0",NA,earthquake,2004-0132,"40.06051189","40.96586412"
"1704",Colombia,COL,"100","1991","4992",Buenaventura,"2",Valle Del Cauca,Buenaventura,NA,Buenaventura,"0",NA,earthquake,1991-0390,"3.596249087","-77.08665041"
"1731",Colombia,COL,"100","2004","4993",Buenaventura,"2",Valle Del Cauca,Buenaventura,NA,Buenaventura,"0",NA,earthquake,2004-0575,"3.596249087","-77.08665041"
"1731",Colombia,COL,"100","2004","5084",El Litoral Del San Juan,"2",Choco,El Litoral Del San Juan,NA,Litoral de San Juan,"0",NA,earthquake,2004-0575,"4.349510806","-76.96519146"
"2797",India,IND,"750","2001","7887",Bhavnagar,"2",Gujarat,Bhavnagar,NA,Bhavnagar,"0",NA,earthquake,2001-0033,"21.59814824","71.92323212"
"2835",India,IND,"750","2004","8042",Ernakulam,"2",Kerala,Ernakulam,NA,Ernakulam,"0",NA,earthquake,2004-0659,"10.05531494","76.47423388"
"2835",India,IND,"750","2004","8558",North And Middle Andaman,"2",Andaman And Nicobar,North And Middle Andaman,NA,Andaman Island,"0",NA,earthquake,2004-0659,"12.85293818","92.872859"
"2835",India,IND,"750","2004","8632",Prakasam,"2",Andhra Pradesh,Prakasam,NA,Prakasam,"0",NA,earthquake,2004-0659,"15.6113679","79.50950386"
"3060",Indonesia,IDN,"850","1995","9641",Poso,"2",Sulawesi Tengah,Poso,NA,Poso,"0",NA,earthquake,1995-0089,"-1.680809256","120.5210926"
"3075",Indonesia,IDN,"850","2000","9074",Banggai Kepulauan,"2",Sulawesi Tengah,Banggai Kepulauan,NA,Totikum,"0",NA,earthquake,2000-0230,"-1.465690191","123.2314589"
"3096",Indonesia,IDN,"850","2002","9851",Teluk Bintuni,"2",Papua Barat,Teluk Bintuni,NA,Bintuni,"0",NA,earthquake,2002-0643,"-2.003097957","133.3085111"
"3119",Indonesia,IDN,"850","2005","9683",Simeulue,"2",Aceh,Simeulue,NA,Simeulue,"0",NA,earthquake,2005-0160,"2.613302227","96.08567416"
"3127",Indonesia,IDN,"850","2006","9449",Kulon Progo,"2",Yogyakarta,Kulon Progo,NA,Kulon Progo,"0",NA,earthquake,2006-0279,"-7.81981488","110.1671217"
"3132",Indonesia,IDN,"850","2006","9424",Kebumen,"2",Jawa Tengah,Kebumen,NA,Kebumen,"0",NA,earthquake,2006-0372,"-7.655266531","109.6174096"
"3133",Indonesia,IDN,"850","2006","9823",Sumbawa,"2",Nusa Tenggara Barat,Sumbawa,NA,Sumbawa region,"0",NA,earthquake,2006-0705,"-8.70322119","117.4849384"
"3161",Indonesia,IDN,"850","2009","9699",Sorong,"2",Papua Barat,Sorong,NA,Sorong,"0",NA,earthquake,2009-0001,"-1.116228766","131.5642837"
"5542",Russia,RUS,"365","2006","19529",Olyutorskiy Rayon,"2",Kamchatka,Olyutorskiy Rayon,NA,Apuka,"0",NA,earthquake,2006-0214,"61.20799784","169.6244198"
"6538",United States,USA,"2","1964","25914",Valdez-Cordova,"2",Alaska,Valdez-Cordova,NA,Prince William Sound,"0",NA,earthquake,1964-0021,"61.46630881","-144.2794106"
"6651",United States,USA,"2","1989","25536",Santa Clara,"2",California,Santa Clara,NA,San Jose,"0",NA,earthquake,1989-0133,"37.23123906","-121.6928912"
"1099",Chile,CHL,"155","1995","3772",Taltal,"3",Antofagasta,Antofagasta,Taltal,Taltal,"0",NA,earthquake,1995-0171,"-25.17610075","-69.8881514"
"1099",Chile,CHL,"155","1995","3783",Vallenar,"3",Atacama,Huasco,Vallenar,Vallenar,"0",NA,earthquake,1995-0171,"-28.56473179","-70.54080274"
"3448",Italy,ITA,"325","1990","10391",Carlentini,"3",Sicily,Syracuse,Carlentini,Carlentini,"0",NA,earthquake,1990-0250,"37.25294826","14.99782827"
"3485",Italy,ITA,"325","2012","10496",Sant' Agostino,"3",Emilia-Romagna,Ferrara,Sant' Agostino,Sant'Agostino,"0",NA,earthquake,2012-0142,"44.80108183","11.38591115"
"1115",Chile,CHL,"155","2005","3713",Huara,"3",Tarapaca,Tamarugal,Huara,Huara,"0",NA,earthquake,2005-0321,"-19.54579651","-69.64229897"
"4788",Panama,PAN,"95","1991","15286",Almirante,"3",Bocas Del Toro,Changuinola,Almirante,Almirante,"0",NA,earthquake,1991-0773,"9.274454312","-82.39730377"
"3127",Indonesia,IDN,"850","2006","9898",Kota Yogyakarta,"2",Yogyakarta,Kota Yogyakarta,NA,Kota Yogyakarta,"0",NA,earthquake,2006-0279,"-7.803291174","110.3743542"
01-1118,Peru,PER,"135","1972","28271",Tarapoto,"3",San Martin,San Martin,Tarapoto, Tarapoto,"0",NA,earthquake,1972-0024,"-6.497946098","-76.36915318"
01-1118,Peru,PER,"135","1972","28272",Juanjui,"3",San Martin,Mariscal Caceres,Juanjui,Juanjui,"0",NA,earthquake,1972-0024,"-7.192874085","-76.78275925"
01-130,Portugal,POR,"235","1998","28604",Faial Da Terra,"3",Azores,Povoacao,Faial Da Terra,Faial and Pico Isl.,"0",NA,earthquake,1998-0206,"37.7534823","-25.19996504"
01-130,Portugal,POR,"235","1998","28605",Pico Da Pedra,"3",Azores,Ribeira Grande,Pico Da Pedra,Faial and Pico Isl.,"0",NA,earthquake,1998-0206,"37.7941588","-25.61567301"
Jan-33,American Samoa,NA,"999","2009","29386",Tula,"3",Eastern,Vaifanua,Tula, Tula,"0",NA,earthquake,2009-0420,"-14.25210388","-170.5695243"
Jan-33,American Samoa,NA,"999","2009","29387",Pago Pago,"3",Eastern,Ma'Oputasi,Pago Pago,Pago Pago,"0",NA,earthquake,2009-0420,"-14.27326444","-170.7033006"
01-532,Guadeloupe,NA,"999","2004","29769",Terre-De-Bas,"2",Basse-Terre,Terre-De-Bas,NA, Terre-de-Bas,"0",NA,earthquake,2004-0582,"15.85437521","-61.63398396"
01-954,Mexico,MEX,"70","1995","30441",Ometepec,"2",Guerrero,Ometepec,NA, Ometepec,"0",NA,earthquake,1995-0203,"16.69902592","-98.28628021"
01-954,Mexico,MEX,"70","1995","30442",Cuajinicuilapa,"2",Guerrero,Cuajinicuilapa,NA, Cuajinicuilapa,"0",NA,earthquake,1995-0203,"16.48959125","-98.5131951"
01-954,Mexico,MEX,"70","1995","30443",Igualapa,"2",Guerrero,Igualapa,NA, Igualapa,"0",NA,earthquake,1995-0203,"16.83563741","-98.43341331"
02-113,China,CHN,"710","2017","30664",Yangbi Yi,"3",Yunnan,Dali Bai,Yangbi Yi,Yangbi ,"0",NA,earthquake,2017-0113,"25.60503957","99.89176449"
02-132,China,CHN,"710","2017","30802",Aba,"3",Sichuan,Ngawa Tibetan And Qiang,Aba,Aba prefecture,"0",NA,earthquake,2017-0331,"32.87740729","101.7683456"
02-144,China,CHN,"710","2018","30877",Yuxi,"2",Yunnan,Yuxi,NA,Yuxi ,"0",NA,earthquake,2018-0323,"24.13815846","102.1990227"
02-184,Ecuador,ECU,"130","2016","31129",Portoviejo,"2",Manabi,Portoviejo,NA, Portoviejo district ,"0",NA,earthquake,2016-0117,"-1.043945022","-80.3655603"
02-184,Ecuador,ECU,"130","2016","31130",Guayaquil,"2",Guayas,Guayaquil,NA,Guayaquil district ,"0",NA,earthquake,2016-0117,"-2.491784627","-80.07884766"
02-184,Ecuador,ECU,"130","2016","31133",Muisne,"2",Esmeraldas,Muisne,NA, Muisne district ,"0",NA,earthquake,2016-0117,"0.529537948","-79.9353105"
02-185,Ecuador,ECU,"130","2016","31139",Portoviejo,"2",Manabi,Portoviejo,NA, Portoviejo district ,"0",NA,earthquake,2016-0151,"-1.043945022","-80.3655603"
02-189,El Salvador,SAL,"92","2018","31156",Chirilagua,"2",San Miguel,Chirilagua,NA, Chirilagua ,"0",NA,earthquake,2018-0321,"13.26049272","-88.12988922"
02-189,El Salvador,SAL,"92","2018","31157",Intipuca,"2",La Union,Intipuca,NA,Intipuca ,"0",NA,earthquake,2018-0321,"13.20283191","-88.03666981"
02-242,Haiti,HAI,"41","2018","31435",Saint-Louis Du Nord,"2",Nord-Ouest,Saint-Louis Du Nord,NA, Saint-Louis-du-Nor,"0",NA,earthquake,2018-0360,"19.87334727","-72.67770874"
02-242,Haiti,HAI,"41","2018","31436",Port-de-Paix,"2",Nord-Ouest,Port-de-Paix,NA,Port-de-Paix,"0",NA,earthquake,2018-0360,"19.87902614","-72.86176156"
02-256,India,IND,"750","2016","31516",Bishnupur,"2",Manipur,Bishnupur,NA, Bishnupur,"0",NA,earthquake,2016-0002,"24.54011965","93.80276712"
02-256,India,IND,"750","2016","31517",Imphal East,"2",Manipur,Imphal East,NA, East Imphal,"0",NA,earthquake,2016-0002,"24.80631058","93.77619621"
02-256,India,IND,"750","2016","31518",Tamenglong,"2",Manipur,Tamenglong,NA, Tamenglong districts ,"0",NA,earthquake,2016-0002,"24.95138801","93.52811839"
02-256,India,IND,"750","2016","31520",Thoubal,"2",Manipur,Thoubal,NA, Thoubal,"0",NA,earthquake,2016-0002,"24.53614326","93.97348943"
02-256,India,IND,"750","2016","31521",Imphal West,"2",Manipur,Imphal West,NA, West Imphal,"0",NA,earthquake,2016-0002,"24.80769217","93.87762532"
02-256,India,IND,"750","2016","31523",Senapati,"2",Manipur,Senapati,NA, Senapati,"0",NA,earthquake,2016-0002,"25.20164854","94.04130978"
02-256,India,IND,"750","2016","31524",Kamrup,"2",Assam,Kamrup,NA,Kamrup district,"0",NA,earthquake,2016-0002,"26.10362335","91.42709144"
02-306,Indonesia,INS,"850","2016","31860",Pidie Jaya,"2",Aceh,Pidie Jaya,NA,Pidie Jaya district ,"0",NA,earthquake,2016-0475,"5.124692093","96.2166424"
02-312,Indonesia,INS,"850","2016","31922",Dompu,"2",Nusa Tenggara Barat,Dompu,NA,Dompu district ,"0",NA,earthquake,2016-0458,"-8.472140268","118.2168059"
02-317,Indonesia,INS,"850","2017","31948",Ciamis,"2",Jawa Barat,Ciamis,NA,Ciamis regency,"0",NA,earthquake,2017-0530,"-7.434347269","108.4661383"
02-323,Indonesia,INS,"850","2018","31991",Bogor,"2",Jawa Barat,Bogor,NA, Bogor ,"0",NA,earthquake,2018-0031,"-6.559979443","106.7675307"
02-323,Indonesia,INS,"850","2018","31992",Lebak,"2",Banten,Lebak,NA, Lebak,"0",NA,earthquake,2018-0031,"-6.64210077","106.2128343"
02-323,Indonesia,INS,"850","2018","31995",Serang,"2",Banten,Serang,NA, Serang ,"0",NA,earthquake,2018-0031,"-6.143006736","106.1486454"
02-323,Indonesia,INS,"850","2018","31996",Cianjur,"2",Jawa Barat,Cianjur,NA, Cianjur,"0",NA,earthquake,2018-0031,"-7.133712506","107.1577718"
02-323,Indonesia,INS,"850","2018","31997",Sukabumi,"2",Jawa Barat,Sukabumi,NA, Sukabumi,"0",NA,earthquake,2018-0031,"-7.076208219","106.707621"
02-323,Indonesia,INS,"850","2018","31998",Pandeglang,"2",Banten,Pandeglang,NA, Pandeglang,"0",NA,earthquake,2018-0031,"-6.590225521","105.742949"
02-325,Indonesia,INS,"850","2018","32001",Lombok Barat,"2",Nusa Tenggara Barat,Lombok Barat,NA, West Lombok,"0",NA,earthquake,2018-0254,"-8.664408935","116.0942345"
02-325,Indonesia,INS,"850","2018","32003",Lombok Timur,"2",Nusa Tenggara Barat,Lombok Timur,NA, Central Lombok,"0",NA,earthquake,2018-0254,"-8.532917635","116.5308806"
02-325,Indonesia,INS,"850","2018","32004",Mataram,"2",Nusa Tenggara Barat,Mataram,NA, Mataram districts ,"0",NA,earthquake,2018-0254,"-8.590268518","116.111093"
02-328,Indonesia,INS,"850","2018","32007",Sigi,"2",Sulawesi Tengah,Sigi,NA, Sigi,"0",NA,earthquake,2018-0352,"-1.408488387","119.9704413"
02-328,Indonesia,INS,"850","2018","32008",Mamuju Utara,"2",Sulawesi Barat,Mamuju Utara,NA, Mamuju Utara ,"0",NA,earthquake,2018-0352,"-1.485664276","119.5072072"
02-328,Indonesia,INS,"850","2018","32009",Palu,"2",Sulawesi Tengah,Palu,NA, Palu,"0",NA,earthquake,2018-0352,"-0.829799656","119.9099738"
02-328,Indonesia,INS,"850","2018","32011",Poso,"2",Sulawesi Tengah,Poso,NA, Poso,"0",NA,earthquake,2018-0352,"-1.680809256","120.5210926"
02-328,Indonesia,INS,"850","2018","32012",Parigi Moutong,"2",Sulawesi Tengah,Parigi Moutong,NA, Parigi Moutong,"0",NA,earthquake,2018-0352,"0.01565598","120.4511341"
02-330,Iran,IRN,"630","2017","32016",Mehran,"2",Ilam,Mehran,NA, Mehran City ,"0",NA,earthquake,2017-0446,"33.31117576","46.36969002"
02-330,Iran,IRN,"630","2017","32018",Eslamabad-e-Gharb,"2",Kermanshah,Eslamabad-e-Gharb,NA, Islamabad- E- Gharb,"0",NA,earthquake,2017-0446,"34.26544868","46.39790731"
02-330,Iran,IRN,"630","2017","32020",Gilan-e-Gharb,"2",Kermanshah,Gilan-e-Gharb,NA, Gilane-Garb,"0",NA,earthquake,2017-0446,"34.1639203","45.94235416"
02-330,Iran,IRN,"630","2017","32021",Qasr-e-Shirin,"2",Kermanshah,Qasr-e-Shirin,NA,Qasre-Shirin,"0",NA,earthquake,2017-0446,"34.11397547","45.62973631"
02-330,Iran,IRN,"630","2017","32022",Sarpol-e-Zahab,"2",Kermanshah,Sarpol-e-Zahab,NA, Sare-Pule-Zahab,"0",NA,earthquake,2017-0446,"34.49889808","45.86754601"
02-333,Iran,IRN,"630","2017","32032",Bojnurd,"2",North Khorasan,Bojnurd,NA,Bojnord,"0",NA,earthquake,2017-0204,"37.43121313","57.90879735"
02-333,Iran,IRN,"630","2017","32034",Mashhad,"2",Razavi Khorasan,Mashhad,NA,Kopet Dag Mountain,"0",NA,earthquake,2017-0204,"36.31603597","59.93807694"
02-336,Iran,IRN,"630","2018","32049",Sarpol-e-Zahab,"2",Kermanshah,Sarpol-e-Zahab,NA,Sarpol-e Zahab ,"0",NA,earthquake,2018-0426,"34.49889808","45.86754601"
02-339,Iraq,IRQ,"645","2017","32052",Darbandokeh,"2",As-Sulaymaniyah,Darbandokeh,NA, Darbandikhan,"0",NA,earthquake,2017-0446,"35.18624282","45.63370934"
02-339,Iraq,IRQ,"645","2017","32056",Halabja,"2",As-Sulaymaniyah,Halabja,NA, Khanaqin and Halabja,"0",NA,earthquake,2017-0446,"35.19889657","45.91233718"
02-339,Iraq,IRQ,"645","2017","32057",Kalar,"2",As-Sulaymaniyah,Kalar,NA, Kalar,"0",NA,earthquake,2017-0446,"34.88576413","45.27184707"
02-348,Italy,ITA,"325","2017","32091",Ascoli Piceno,"2",Marche,Ascoli Piceno,NA,Ascoli Piceno,"0",NA,earthquake,2017-0015,"42.88886507","13.5554043"
02-348,Italy,ITA,"325","2017","32098",Rieti,"2",Lazio,Rieti,NA,Rieti,"0",NA,earthquake,2017-0015,"42.37750769","12.96117645"
02-348,Italy,ITA,"325","2017","32100",Fermo,"2",Marche,Fermo,NA, Fermo,"0",NA,earthquake,2017-0015,"43.10007257","13.57744961"
02-348,Italy,ITA,"325","2017","32101",Ancona,"2",Marche,Ancona,NA, Ancona,"0",NA,earthquake,2017-0015,"43.50445628","13.15579399"
02-348,Italy,ITA,"325","2017","32102",Pescara,"2",Abruzzo,Pescara,NA,Pescara,"0",NA,earthquake,2017-0015,"42.33262515","13.98446011"
02-348,Italy,ITA,"325","2017","32103",Macerata,"2",Marche,Macerata,NA, Macerata,"0",NA,earthquake,2017-0015,"43.18991683","13.23975427"
02-357,Japan,JPN,"740","2016","32153",Kurayoshi,"2",Tottori,Kurayoshi,NA,Kurayoshi city ,"0",NA,earthquake,2016-0492,"35.38700223","133.7523068"
02-373,Japan,JPN,"740","2018","32242",Atsuma,"2",Hokkaido,Atsuma,NA,Atsuma village,"0",NA,earthquake,2018-0330,"42.73748672","141.9608487"
02-373,Japan,JPN,"740","2018","32244",Sapporo,"2",Hokkaido,Sapporo,NA, Sapporo ,"0",NA,earthquake,2018-0330,"42.99594639","141.2604924"
02-373,Japan,JPN,"740","2018","32245",Abira,"2",Hokkaido,Abira,NA, Abira,"0",NA,earthquake,2018-0330,"42.81727731","141.8498565"
02-388,South Korea,ROK,"732","2017","32286",Pohang,"2",Gyeongsangbuk-Do,Pohang,NA,Near Pohang,"0",NA,earthquake,2017-0443,"36.06944109","129.3107776"
02-390,Kyrgyzstan,KYR,"703","2017","32296",Chong-Alay,"2",Osh,Chong-Alay,NA, Shibee villages ,"0",NA,earthquake,2017-0451,"39.53386038","72.24431361"
Feb-40,Bangladesh,BNG,"771","2016","32320",Panchagarh,"2",Rangpur,Panchagarh,NA, Panchagarh districts ,"0",NA,earthquake,2016-0002,"26.28457066","88.57596034"
Feb-40,Bangladesh,BNG,"771","2016","32322",Jamalpur,"2",Dhaka,Jamalpur,NA, Jamalpur districts ,"0",NA,earthquake,2016-0002,"24.97300679","89.8462506"
Feb-40,Bangladesh,BNG,"771","2016","32323",Lalmonirhat,"2",Rangpur,Lalmonirhat,NA, Lalmonirhat,"0",NA,earthquake,2016-0002,"26.05924237","89.23841099"
02-434,Mexico,MEX,"70","2017","32585",Cuernavaca,"2",Morelos,Cuernavaca,NA,Cuernavaca,"0",NA,earthquake,2017-0387,"18.89558465","-99.23082458"
02-434,Mexico,MEX,"70","2017","32586",Jojutla,"2",Morelos,Jojutla,NA, Jojutla,"0",NA,earthquake,2017-0387,"18.5880187","-99.14230197"
02-434,Mexico,MEX,"70","2017","32588",Reforma,"2",Chiapas,Reforma,NA, Reforma,"0",NA,earthquake,2017-0387,"17.84943636","-93.25361205"
02-437,Mexico,MEX,"70","2017","32603",Dist. Juchitan,"2",Oaxaca,Dist. Juchitan,NA,Juchitan,"0",NA,earthquake,2017-0382,"16.77579897","-94.64717401"
02-437,Mexico,MEX,"70","2017","32604",Cintalapa,"2",Chiapas,Cintalapa,NA,Cintapala,"0",NA,earthquake,2017-0382,"16.70953689","-93.89015659"
02-464,New Zealand,NEW,"920","2016","32830",Kaikoura,"2",Canterbury,Kaikoura,NA, Kaikoura ,"0",NA,earthquake,2016-0395,"-42.19829323","173.6436399"
02-511,Peru,PER,"135","2016","33132",Quechualla,"3",Arequipa,La Union,Quechualla,"

Cabanoconde","0",NA,earthquake,2016-0298,"-15.28954453","-73.07064305"
02-515,Peru,PER,"135","2018","33200",Huanca Sancos,"2",Ayacucho,Huanca Sancos,NA, Sancos district,"0",NA,earthquake,2018-0011,"-13.94389145","-74.46064383"
02-515,Peru,PER,"135","2018","33202",Paucar Del Sara Sara,"2",Ayacucho,Paucar Del Sara Sara,NA, Paucar del Sara Sara provinces ,"0",NA,earthquake,2018-0011,"-15.1226907","-73.26198002"
02-515,Peru,PER,"135","2018","33203",Lucanas,"2",Ayacucho,Lucanas,NA, Lucanas,"0",NA,earthquake,2018-0011,"-14.61603686","-74.34597296"
02-515,Peru,PER,"135","2018","33207",Condesuyos,"2",Arequipa,Condesuyos,NA, Rio Grande district ,"0",NA,earthquake,2018-0011,"-15.59719979","-72.73087862"
02-537,Philippines,PHI,"840","2017","33441",Kananga,"2",Leyte,Kananga,NA,Kananga ,"0",NA,earthquake,2017-0247,"11.16896895","124.5640101"
02-537,Philippines,PHI,"840","2017","33442",Ormoc City,"2",Leyte,Ormoc City,NA, Ormoc City,"0",NA,earthquake,2017-0247,"11.05524611","124.635705"
02-537,Philippines,PHI,"840","2017","33443",Carigara,"2",Leyte,Carigara,NA, Carigara,"0",NA,earthquake,2017-0247,"11.23680084","124.6931031"
02-618,Tajikistan,TAJ,"702","2016","33863",Rasht,"2",Tadzhikistan Territories,Rasht,NA,Garmskiy district,"0",NA,earthquake,2016-0251,"39.1763606","70.41494383"
