id,country,iso3,gwno,year,geo_id,geolocation,level,adm1,adm2,adm3,location,historical,hist_country,disastertype,disasterno,latitude,longitude
"109",Albania,ALB,"339","2009","346",Ana E Malit,"3",Shkoder,Shkodres,Ana E Malit,Ana E Malit,"0",NA,flood,2009-0631,"42.02094846","19.4183173"
"109",Albania,ALB,"339","2009","351",Bushat,"3",Shkoder,Shkodres,Bushat,Bushat,"0",NA,flood,2009-0631,"41.95929412","19.51430874"
"175",Angola,AGO,"540","2001","760",Onjiva,"3",Cunene,Cuanhama,Onjiva,Onjiva,"0",NA,flood,2001-0146,"-17.09348436","15.66575761"
"187",Angola,AGO,"540","2009","710",Evale,"3",Cunene,Cuanhama,Evale,Evale,"0",NA,flood,2009-0092,"-16.53153266","15.77398677"
"187",Angola,AGO,"540","2009","749",Mupa,"3",Cunene,Cuvelai,Mupa,Mupa,"0",NA,flood,2009-0092,"-16.20006451","15.84418871"
"187",Angola,AGO,"540","2009","761",Onjiva,"3",Cunene,Cuanhama,Onjiva,Onjiva,"0",NA,flood,2009-0092,"-17.09348436","15.66575761"
"189",Angola,AGO,"540","2010","711",Evale,"3",Cunene,Cuanhama,Evale,Evale,"0",NA,flood,2010-0105,"-16.53153266","15.77398677"
"189",Angola,AGO,"540","2010","750",Mupa,"3",Cunene,Cuvelai,Mupa,Mupa,"0",NA,flood,2010-0105,"-16.20006451","15.84418871"
"568",Bangladesh,BGD,"771","2000","1873",Hathazari,"3",Chittagong,Chittagong,Hathazari,Hathazari,"0",NA,flood,2000-0373,"22.51490173","91.79844975"
"568",Bangladesh,BGD,"771","2000","2121",Patiya,"3",Chittagong,Chittagong,Patiya,Patiya,"0",NA,flood,2000-0373,"22.31876551","91.96625756"
"568",Bangladesh,BGD,"771","2000","2195",Satkania,"3",Chittagong,Chittagong,Satkania,Satkania,"0",NA,flood,2000-0373,"22.12083269","92.06191617"
"593",Bangladesh,BGD,"771","2004","1687",Burichang,"3",Chittagong,Comilla,Burichang,Burichang,"0",NA,flood,2004-0470,"23.53178972","91.1169815"
"593",Bangladesh,BGD,"771","2004","1695",Chauddagram,"3",Chittagong,Comilla,Chauddagram,Chouddogram,"0",NA,flood,2004-0470,"23.21933285","91.28705776"
"610",Bangladesh,BGD,"771","2006","1917",Kanaighat,"3",Sylhet,Sylhet,Kanaighat,Kanaighat,"0",NA,flood,2006-0262,"24.99543198","92.22285389"
"610",Bangladesh,BGD,"771","2006","2299",Zakiganj,"3",Sylhet,Sylhet,Zakiganj,Zakiganj,"0",NA,flood,2006-0262,"24.92887963","92.37380049"
"692",Belgium,BEL,"211","2011","2357",Dinant,"3",Wallonie,Namur,Dinant,Dinant,"0",NA,flood,2011-0012,"50.16258678","5.03355038"
"746",Bolivia,BOL,"145","2006","2521",Papel Pampa,"3",La Paz,Gualberto Villarroel,Papel Pampa,Papel Pampa,"0",NA,flood,2006-0039,"-17.68585106","-67.70626762"
"746",Bolivia,BOL,"145","2006","2527",San Pedro De Curahuara,"3",La Paz,Gualberto Villarroel,San Pedro De Curahuara,San Pedro de Curahuara,"0",NA,flood,2006-0039,"-17.61764106","-67.96341598"
"756",Bosnia And Herzegovina,BIH,"346","2004","2582",Bugojno,"3",Federacija Bosna I Hercegovina,Central Bosnia,Bugojno,Bugojno,"0",NA,flood,2004-0169,"44.03226915","17.44797281"
"756",Bosnia And Herzegovina,BIH,"346","2004","2603",Jajce,"3",Federacija Bosna I Hercegovina,Central Bosnia,Jajce,Jajce,"0",NA,flood,2004-0169,"44.33725409","17.29870747"
"757",Bosnia And Herzegovina,BIH,"346","2004","2583",Bugojno,"3",Federacija Bosna I Hercegovina,Central Bosnia,Bugojno,Bugojno,"0",NA,flood,2004-0163,"44.03226915","17.44797281"
"757",Bosnia And Herzegovina,BIH,"346","2004","2595",Donji Vakuf,"3",Federacija Bosna I Hercegovina,Central Bosnia,Donji Vakuf,Donji Vakuf,"0",NA,flood,2004-0163,"44.15461618","17.35910439"
"757",Bosnia And Herzegovina,BIH,"346","2004","2604",Jezero,"3",Repuplika Srpska,Banja Luka,Jezero,Jezero,"0",NA,flood,2004-0163,"44.33984371","17.16684926"
"757",Bosnia And Herzegovina,BIH,"346","2004","2607",Lukavac,"3",Federacija Bosna I Hercegovina,Tuzla,Lukavac,Lukavac,"0",NA,flood,2004-0163,"44.54128441","18.42472493"
"757",Bosnia And Herzegovina,BIH,"346","2004","2609",Maglaj,"3",Federacija Bosna I Hercegovina,Zenica-Doboj,Maglaj,Maglaj,"0",NA,flood,2004-0163,"44.5438757","18.10375018"
"757",Bosnia And Herzegovina,BIH,"346","2004","2621",Prijedor,"3",Repuplika Srpska,Banja Luka,Prijedor,Prijedor,"0",NA,flood,2004-0163,"44.94905247","16.76731375"
"757",Bosnia And Herzegovina,BIH,"346","2004","2624",Prnjavor,"3",Repuplika Srpska,Banja Luka,Prnjavor,Prnjavor,"0",NA,flood,2004-0163,"44.86318866","17.62773294"
"757",Bosnia And Herzegovina,BIH,"346","2004","2635",Sanski Most,"3",Federacija Bosna I Hercegovina,Una-Sana,Sanski Most,Sanski Most,"0",NA,flood,2004-0163,"44.75264834","16.56274186"
"757",Bosnia And Herzegovina,BIH,"346","2004","2640",Srbac,"3",Repuplika Srpska,Banja Luka,Srbac,Srbac,"0",NA,flood,2004-0163,"45.0418064","17.56101931"
"757",Bosnia And Herzegovina,BIH,"346","2004","2644",Travnik,"3",Federacija Bosna I Hercegovina,Central Bosnia,Travnik,Travnik,"0",NA,flood,2004-0163,"44.27620233","17.61588411"
"758",Bosnia And Herzegovina,BIH,"346","2005","2577",Bosanska Krupa,"3",Federacija Bosna I Hercegovina,Una-Sana,Bosanska Krupa,Bosanska Krupa,"0",NA,flood,2005-0695,"44.89335896","16.17398321"
"758",Bosnia And Herzegovina,BIH,"346","2005","2616",Novi Grad,"3",Repuplika Srpska,Banja Luka,Novi Grad,Novi GRad,"0",NA,flood,2005-0695,"44.98174212","16.41319161"
"758",Bosnia And Herzegovina,BIH,"346","2005","2622",Prijedor,"3",Repuplika Srpska,Banja Luka,Prijedor,Prijedor,"0",NA,flood,2005-0695,"44.94905247","16.76731375"
"758",Bosnia And Herzegovina,BIH,"346","2005","2636",Sanski Most,"3",Federacija Bosna I Hercegovina,Una-Sana,Sanski Most,Sanski Most,"0",NA,flood,2005-0695,"44.75264834","16.56274186"
"759",Bosnia And Herzegovina,BIH,"346","2009","2614",Neum,"3",Federacija Bosna I Hercegovina,Herzegovina-Neretva,Neum,Neum municipality,"0",NA,flood,2009-0081,"42.95425306","17.76396141"
"759",Bosnia And Herzegovina,BIH,"346","2009","2626",Ravno,"3",Federacija Bosna I Hercegovina,Herzegovina-Neretva,Ravno,Ravno,"0",NA,flood,2009-0081,"42.80469192","18.03213395"
"761",Bosnia And Herzegovina,BIH,"346","2010","2591",Doboj East,"3",Federacija Bosna I Hercegovina,Tuzla,Doboj East,Doboj Istok,"0",NA,flood,2010-0252,"44.74373882","18.18140154"
"761",Bosnia And Herzegovina,BIH,"346","2010","2592",Doboj South,"3",Federacija Bosna I Hercegovina,Zenica-Doboj,Doboj South,Doboj Jug,"0",NA,flood,2010-0252,"44.69501778","18.03066341"
"761",Bosnia And Herzegovina,BIH,"346","2010","2605",Kalesija,"3",Federacija Bosna I Hercegovina,Tuzla,Kalesija,Kalesija,"0",NA,flood,2010-0252,"44.4700629","18.83558792"
"761",Bosnia And Herzegovina,BIH,"346","2010","2606",Kladanj,"3",Federacija Bosna I Hercegovina,Tuzla,Kladanj,Kladanj,"0",NA,flood,2010-0252,"44.26781066","18.65904185"
"761",Bosnia And Herzegovina,BIH,"346","2010","2608",Lukavac,"3",Federacija Bosna I Hercegovina,Tuzla,Lukavac,Lukavac,"0",NA,flood,2010-0252,"44.54128441","18.42472493"
"761",Bosnia And Herzegovina,BIH,"346","2010","2623",Prijedor,"3",Repuplika Srpska,Banja Luka,Prijedor,Prijedor,"0",NA,flood,2010-0252,"44.94905247","16.76731375"
"761",Bosnia And Herzegovina,BIH,"346","2010","2625",Prnjavor,"3",Repuplika Srpska,Banja Luka,Prnjavor,Prnjavor,"0",NA,flood,2010-0252,"44.86318866","17.62773294"
"761",Bosnia And Herzegovina,BIH,"346","2010","2641",Srebrenik,"3",Federacija Bosna I Hercegovina,Tuzla,Srebrenik,Srebrenik,"0",NA,flood,2010-0252,"44.70397423","18.5059005"
"762",Bosnia And Herzegovina,BIH,"346","2010","2578",Bratunac,"3",Repuplika Srpska,Vlasenica,Bratunac,Bratunac,"0",NA,flood,2010-0619,"44.19834357","19.28802267"
"762",Bosnia And Herzegovina,BIH,"346","2010","2593",Domaljevac-Samac,"3",Federacija Bosna I Hercegovina,Posavina,Domaljevac-Samac,Domaljevac-Samac,"0",NA,flood,2010-0619,"45.06958406","18.5398748"
"762",Bosnia And Herzegovina,BIH,"346","2010","2596",Drvar,"3",Federacija Bosna I Hercegovina,"10",Drvar,Drvar,"0",NA,flood,2010-0619,"44.36739641","16.41505761"
"762",Bosnia And Herzegovina,BIH,"346","2010","2627",Ravno,"3",Federacija Bosna I Hercegovina,Herzegovina-Neretva,Ravno,Ravno,"0",NA,flood,2010-0619,"42.80469192","18.03213395"
"762",Bosnia And Herzegovina,BIH,"346","2010","2642",Stolac,"3",Federacija Bosna I Hercegovina,Herzegovina-Neretva,Stolac,Stolac,"0",NA,flood,2010-0619,"43.08760919","17.88736521"
"762",Bosnia And Herzegovina,BIH,"346","2010","2643",Tomislavgrad,"3",Federacija Bosna I Hercegovina,"10",Tomislavgrad,Tomislavgrad,"0",NA,flood,2010-0619,"43.68527474","17.23226276"
"762",Bosnia And Herzegovina,BIH,"346","2010","2664",Zvornik,"3",Repuplika Srpska,Vlasenica,Zvornik,Zvornik,"0",NA,flood,2010-0619,"44.45026171","19.06985843"
"764",Bosnia And Herzegovina,BIH,"346","2014","2594",Domaljevac-Samac,"3",Federacija Bosna I Hercegovina,Posavina,Domaljevac-Samac,Somaljevac,"0",NA,flood,2014-0164,"45.06958406","18.5398748"
"764",Bosnia And Herzegovina,BIH,"346","2014","2658",Zenica,"3",Federacija Bosna I Hercegovina,Zenica-Doboj,Zenica,Zenica,"0",NA,flood,2014-0164,"44.27346664","17.91054297"
"871",Brazil,BRA,"140","2013","3036",Xerem,"3",Rio De Janeiro,Duque De Caxias,Xerem,Xerem,"0",NA,flood,2013-0003,"-22.58791053","-43.32652703"
"872",Brazil,BRA,"140","2013","3037",Xerem,"3",Rio De Janeiro,Duque De Caxias,Xerem,Xerem,"0",NA,flood,2013-0077,"-22.58791053","-43.32652703"
"1012",Canada,CAN,"20","2003","3529",Squamish,"3",British Columbia,Squamish-Lillooet,Squamish,Squamish,"0",NA,flood,2003-0511,"49.75355683","-123.1480012"
"1012",Canada,CAN,"20","2003","3538",Whistler,"3",British Columbia,Squamish-Lillooet,Whistler,Whistler,"0",NA,flood,2003-0511,"50.09671519","-122.966902"
"1018",Canada,CAN,"20","2005","3460",Kippens,"3",Newfoundland And Labrador,No. 4,Kippens,Kippens,"0",NA,flood,2005-0591,"48.55994448","-58.63657039"
"1018",Canada,CAN,"20","2005","3532",Stephenville,"3",Newfoundland And Labrador,No. 4,Stephenville,Stephenville,"0",NA,flood,2005-0591,"48.5481226","-58.55037534"
"1020",Canada,CAN,"20","2006","3430",Baie Verte,"3",Newfoundland And Labrador,No. 8,Baie Verte,Baie Verte,"0",NA,flood,2006-0203,"49.90752633","-56.19456881"
"1020",Canada,CAN,"20","2006","3452","Division No.  8; Subd. O","3",Newfoundland And Labrador,No. 8,"Division No.  8; Subd. O",Smith's Harbour,"0",NA,flood,2006-0203,"49.81243018","-55.9318644"
"1020",Canada,CAN,"20","2006","3466",Middle Arm,"3",Newfoundland And Labrador,No. 8,Middle Arm,Middle Arm,"0",NA,flood,2006-0203,"49.70224049","-56.11662187"
"1027",Canada,CAN,"20","2008","3431",Belleville,"3",Ontario,Hastings,Belleville,Belleville,"0",NA,flood,2008-0170,"44.23993117","-77.36156892"
"1027",Canada,CAN,"20","2008","3537",Tweed,"3",Ontario,Hastings,Tweed,Tweed,"0",NA,flood,2008-0170,"44.60463573","-77.32848667"
"1111",Chile,CHL,"155","2002","3734",Nancagua,"3",Libertador General Bernardo O'Higgins,Colchagua,Nancagua,Puquillay,"0",NA,flood,2002-0546,"-34.62222229","-71.1861221"
"1111",Chile,CHL,"155","2002","3758",San Fernando,"3",Libertador General Bernardo O'Higgins,Colchagua,San Fernando,Sierras de Bellavista,"0",NA,flood,2002-0546,"-34.73757863","-70.60767568"
"1111",Chile,CHL,"155","2002","3759",Santa Cruz,"3",Libertador General Bernardo O'Higgins,Colchagua,Santa Cruz,San Fernando-Pichilemu,"0",NA,flood,2002-0546,"-34.61858408","-71.43154948"
"1121",Chile,CHL,"155","2008","3707",Coronel,"3",Bio-Bio,Concepcion,Coronel,Coronel,"0",NA,flood,2008-0229,"-36.96205927","-73.06827332"
"1121",Chile,CHL,"155","2008","3741",Penco,"3",Bio-Bio,Concepcion,Penco,San Vincente Lirquen,"0",NA,flood,2008-0229,"-36.76168415","-72.90458931"
"1122",Chile,CHL,"155","2008","3684",Carahue,"3",Araucania,Cautin,Carahue,Carahue,"0",NA,flood,2008-0389,"-38.65962214","-73.18873024"
"1122",Chile,CHL,"155","2008","3735",Nueva Imperial,"3",Araucania,Cautin,Nueva Imperial,Nueva Imperial,"0",NA,flood,2008-0389,"-38.69430002","-72.81774295"
"1122",Chile,CHL,"155","2008","3756",Saavedra,"3",Araucania,Cautin,Saavedra,Puerto Saavedra,"0",NA,flood,2008-0389,"-38.8304749","-73.28376241"
"2091",Ethiopia,ETH,"530","1995","6314",Ferfer,"3",Somali,Shabelle,Ferfer,Ferfer,"0",NA,flood,1995-0103,"5.49024987","45.23027746"
"2091",Ethiopia,ETH,"530","1995","6324",Gode,"3",Somali,Shabelle,Gode,Burukur,"0",NA,flood,1995-0103,"6.107586297","43.53092574"
"2091",Ethiopia,ETH,"530","1995","6334",Kelafo,"3",Somali,Shabelle,Kelafo,Kelafo,"0",NA,flood,1995-0103,"5.739242392","44.17314558"
"2091",Ethiopia,ETH,"530","1995","6341",Mustahil,"3",Somali,Shabelle,Mustahil,Mustahil,"0",NA,flood,1995-0103,"5.452177031","44.76028407"
"2114",Ethiopia,ETH,"530","2006","6306",Denan,"3",Somali,Shabelle,Denan,Denan,"0",NA,flood,2006-0578,"6.72208394","43.2803515"
"2114",Ethiopia,ETH,"530","2006","6312",East Imi,"3",Somali,Shabelle,East Imi,East IMi,"0",NA,flood,2006-0578,"6.651001665","42.58613129"
"2114",Ethiopia,ETH,"530","2006","6315",Ferfer,"3",Somali,Shabelle,Ferfer,Ferfer,"0",NA,flood,2006-0578,"5.49024987","45.23027746"
"2114",Ethiopia,ETH,"530","2006","6327",Gode,"3",Somali,Shabelle,Gode,Gode,"0",NA,flood,2006-0578,"6.107586297","43.53092574"
"2114",Ethiopia,ETH,"530","2006","6335",Kelafo,"3",Somali,Shabelle,Kelafo,Kelafo,"0",NA,flood,2006-0578,"5.739242392","44.17314558"
"2114",Ethiopia,ETH,"530","2006","6343",Mustahil,"3",Somali,Shabelle,Mustahil,Mustahil,"0",NA,flood,2006-0578,"5.452177031","44.76028407"
"2119",Ethiopia,ETH,"530","2008","6313",East Imi,"3",Somali,Shabelle,East Imi,East Imi,"0",NA,flood,2008-0517,"6.651001665","42.58613129"
"2119",Ethiopia,ETH,"530","2008","6336",Kelafo,"3",Somali,Shabelle,Kelafo,Kelafo,"0",NA,flood,2008-0517,"5.739242392","44.17314558"
"2119",Ethiopia,ETH,"530","2008","6344",Mustahil,"3",Somali,Shabelle,Mustahil,Mustahil,"0",NA,flood,2008-0517,"5.452177031","44.76028407"
"2221",France,FRA,"220","2001","6480",Abbeville,"3",Hauts-de-France,Somme,Abbeville,Abbeville,"0",NA,flood,2001-0229,"50.12606535","1.76805618"
"2221",France,FRA,"220","2001","6492",Amiens,"3",Hauts-de-France,Somme,Amiens,Amiens,"0",NA,flood,2001-0229,"49.94193236","2.21498166"
"2259",France,FRA,"220","2014","6640",Perpignan,"3",Occitanie,Pyrenees-Orientales,Perpignan,Perpignan region,"0",NA,flood,2014-0488,"42.7330639","2.772827355"
"2390",Greece,GRC,"350","1994","6981",Kasos,"3",Aegean,South Aegean,Kasos,Kasos Island,"0",NA,flood,1994-0543,"35.3931575","26.91764809"
"2390",Greece,GRC,"350","1994","7016",Rhodos,"3",Aegean,South Aegean,Rhodos,Rhodes Island,"0",NA,flood,1994-0543,"36.1834173","27.95152544"
"2408",Greece,GRC,"350","2003","6995",Marathon,"3",Attica,Attica,Marathon,Marathon,"0",NA,flood,2003-0044,"38.1718537","23.97518836"
"2408",Greece,GRC,"350","2003","6997",Oropos,"3",Attica,Attica,Oropos,Oropos,"0",NA,flood,2003-0044,"38.25411773","23.78470678"
"2520",Haiti,HTI,"41","2002","7274",Chantal,"3",Sud,Les Cayes,Chantal,Chantal,"0",NA,flood,2002-0321,"18.28096469","-73.96668455"
"2537",Haiti,HTI,"41","2006","7247",Abricots,"3",Grand'Anse,Jeremie,Abricots,Abricots,"0",NA,flood,2006-0651,"18.61320612","-74.31510131"
"2537",Haiti,HTI,"41","2006","7253",Baie De Henne,"3",Nord-Ouest,Mole Saint-Nicolas,Baie De Henne,Baie de Henne,"0",NA,flood,2006-0651,"19.69494787","-73.20408571"
"2537",Haiti,HTI,"41","2006","7254",Beaumont,"3",Grand'Anse,Corail,Beaumont,Beaumont,"0",NA,flood,2006-0651,"18.43724415","-73.9585865"
"2537",Haiti,HTI,"41","2006","7256",Bonbon,"3",Grand'Anse,Jeremie,Bonbon,Bonbon,"0",NA,flood,2006-0651,"18.6295454","-74.23942102"
"2537",Haiti,HTI,"41","2006","7273",Chansolme,"3",Nord-Ouest,Port-de-Paix,Chansolme,Chansolme,"0",NA,flood,2006-0651,"19.87276132","-72.80583022"
"2537",Haiti,HTI,"41","2006","7314",Jean Rabel,"3",Nord-Ouest,Mole Saint-Nicolas,Jean Rabel,Jean-Rabel,"0",NA,flood,2006-0651,"19.82845044","-73.1300626"
"2537",Haiti,HTI,"41","2006","7352",Moron,"3",Grand'Anse,Jeremie,Moron,Moron,"0",NA,flood,2006-0651,"18.47702304","-74.26456483"
"2537",Haiti,HTI,"41","2006","7424",Pestel,"3",Grand'Anse,Corail,Pestel,Pestel,"0",NA,flood,2006-0651,"18.46718315","-73.83978336"
"2549",Haiti,HTI,"41","2009","7258",Camp Perrin,"3",Sud,Les Cayes,Camp Perrin,Camp Perrin,"0",NA,flood,2009-0198,"18.34794676","-73.85982974"
"2549",Haiti,HTI,"41","2009","7349",Maniche,"3",Sud,Les Cayes,Maniche,Maniche,"0",NA,flood,2009-0198,"18.33525463","-73.73696499"
"2561",Haiti,HTI,"41","2011","7259",Camp Perrin,"3",Sud,Les Cayes,Camp Perrin,Camp-Perrin,"0",NA,flood,2011-0383,"18.34794676","-73.85982974"
"2561",Haiti,HTI,"41","2011","7275",Chantal,"3",Sud,Les Cayes,Chantal,Chantal,"0",NA,flood,2011-0383,"18.28096469","-73.96668455"
"2561",Haiti,HTI,"41","2011","7350",Maniche,"3",Sud,Les Cayes,Maniche,Maniche,"0",NA,flood,2011-0383,"18.33525463","-73.73696499"
"2561",Haiti,HTI,"41","2011","7456",Saint Jean Du Sud,"3",Sud,Port-Salut,Saint Jean Du Sud,Saint-Jean-du-Sud,"0",NA,flood,2011-0383,"18.28742228","-73.5466065"
"4366",Mozambique,MOZ,"541","2001","13741",Mafambisse,"3",Sofala,Dondo,Mafambisse,Mafambisse,"0",NA,flood,2001-0019,"-19.42503879","34.61416227"
"4379",Mozambique,MOZ,"541","2007","13696",Dombe,"3",Manica,Sussundenga,Dombe,Dombe,"0",NA,flood,2007-0614,"-19.89981277","33.39628882"
"4379",Mozambique,MOZ,"541","2007","13733",Inhangoma,"3",Tete,Mutarara,Inhangoma,Inhangoma,"0",NA,flood,2007-0614,"-17.51061694","35.23023378"
"4379",Mozambique,MOZ,"541","2007","13841",Nhamayabue,"3",Tete,Mutarara,Nhamayabue,Nhamayabue,"0",NA,flood,2007-0614,"-17.05759062","35.00437752"
"4407",Myanmar,MMR,"775","2001","13957",Mahlaing,"3",Mandalay,Myingyan,Mahlaing,Mahlaing,"0",NA,flood,2001-0746,"21.05340167","95.6408345"
"4419",Myanmar,MMR,"775","2011","13987",Pauk,"3",Magway,Pakokku,Pauk,Pauk,"0",NA,flood,2011-0400,"21.47305876","94.50384656"
"4419",Myanmar,MMR,"775","2011","14036",Yesagyo,"3",Magway,Pakokku,Yesagyo,Yesagyo,"0",NA,flood,2011-0400,"21.57719195","95.18676671"
"4445",Nepal,NPL,"790","1986","14263",Morang,"3",East,Koshi,Morang,Morang,"0",NA,flood,1986-0224,"26.61669552","87.47181543"
"4445",Nepal,NPL,"790","1986","14370",Sunsari,"3",East,Koshi,Sunsari,Sunsari,"0",NA,flood,1986-0224,"26.65168012","87.17244306"
"4450",Nepal,NPL,"790","1993","14134",Chitawan,"3",Central,Narayani,Chitawan,Chitawan,"0",NA,flood,1993-0052,"27.58446822","84.43883916"
"4450",Nepal,NPL,"790","1993","14253",Makwanpur,"3",Central,Narayani,Makwanpur,Markwanpur,"0",NA,flood,1993-0052,"27.46994485","85.08120085"
"4450",Nepal,NPL,"790","1993","14293",Panchthar,"3",East,Mechi,Panchthar,Pantchthar,"0",NA,flood,1993-0052,"27.11337157","87.77651847"
"4450",Nepal,NPL,"790","1993","14316",Rautahat,"3",Central,Narayani,Rautahat,Rautahat,"0",NA,flood,1993-0052,"27.00149079","85.30494916"
"4450",Nepal,NPL,"790","1993","14342",Sarlahi,"3",Central,Janakpur,Sarlahi,Sharlahi,"0",NA,flood,1993-0052,"26.98640254","85.56691433"
"4450",Nepal,NPL,"790","1993","14349",Sindhuli,"3",Central,Janakpur,Sindhuli,Sindhuli,"0",NA,flood,1993-0052,"27.20078376","85.94713344"
"4450",Nepal,NPL,"790","1993","14388",Taplejung,"3",East,Mechi,Taplejung,Taplejung,"0",NA,flood,1993-0052,"27.58005501","87.82388638"
"4452",Nepal,NPL,"790","1995","14237",Khotang,"3",East,Sagarmatha,Khotang,Khotang,"0",NA,flood,1995-0105,"27.167664","86.79012995"
"4452",Nepal,NPL,"790","1995","14286",Okhaldhunga,"3",East,Sagarmatha,Okhaldhunga,Okhaldhunga,"0",NA,flood,1995-0105,"27.32968995","86.42208086"
"4452",Nepal,NPL,"790","1995","14365",Solukhumbu,"3",East,Sagarmatha,Solukhumbu,Solukhumbu,"0",NA,flood,1995-0105,"27.71000485","86.72345995"
"4454",Nepal,NPL,"790","1996","14103",Baitadi,"3",Far-Western,Mahakali,Baitadi,Baitadi,"0",NA,flood,1996-0107,"29.50751599","80.57209181"
"4454",Nepal,NPL,"790","1996","14151",Darchula,"3",Far-Western,Mahakali,Darchula,Darchula,"0",NA,flood,1996-0107,"29.89156096","80.79208143"
"4454",Nepal,NPL,"790","1996","14155",Dhading,"3",Central,Bagmati,Dhading,Dhading,"0",NA,flood,1996-0107,"27.94894272","84.95825539"
"4454",Nepal,NPL,"790","1996","14183",Gulmi,"3",West,Lumbini,Gulmi,Gulmi,"0",NA,flood,1996-0107,"28.09454597","83.30769385"
"4454",Nepal,NPL,"790","1996","14226",Kapilbastu,"3",West,Lumbini,Kapilbastu,Kapalvastu,"0",NA,flood,1996-0107,"27.62835206","82.98563224"
"4454",Nepal,NPL,"790","1996","14254",Makwanpur,"3",Central,Narayani,Makwanpur,Makawanpur,"0",NA,flood,1996-0107,"27.46994485","85.08120085"
"4454",Nepal,NPL,"790","1996","14312",Rasuwa,"3",Central,Bagmati,Rasuwa,Rasuwa,"0",NA,flood,1996-0107,"28.18475101","85.41610352"
"4454",Nepal,NPL,"790","1996","14317",Rautahat,"3",Central,Narayani,Rautahat,Rautahar,"0",NA,flood,1996-0107,"27.00149079","85.30494916"
"4454",Nepal,NPL,"790","1996","14329",Rupandehi,"3",West,Lumbini,Rupandehi,Rupandehi,"0",NA,flood,1996-0107,"27.57685316","83.39118063"
"4456",Nepal,NPL,"790","1998","14104",Baitadi,"3",Far-Western,Mahakali,Baitadi,Baitadi,"0",NA,flood,1998-0221,"29.50751599","80.57209181"
"4456",Nepal,NPL,"790","1998","14121",Bara,"3",Central,Narayani,Bara,Bara,"0",NA,flood,1998-0221,"27.10863016","85.07288901"
"4456",Nepal,NPL,"790","1998","14152",Darchula,"3",Far-Western,Mahakali,Darchula,Darchula,"0",NA,flood,1998-0221,"29.89156096","80.79208143"
"4456",Nepal,NPL,"790","1998","14156",Dhading,"3",Central,Bagmati,Dhading,Dhading,"0",NA,flood,1998-0221,"27.94894272","84.95825539"
"4456",Nepal,NPL,"790","1998","14184",Gulmi,"3",West,Lumbini,Gulmi,Gulmi,"0",NA,flood,1998-0221,"28.09454597","83.30769385"
"4456",Nepal,NPL,"790","1998","14191",Ilam,"3",East,Mechi,Ilam,Ilam,"0",NA,flood,1998-0221,"26.8810675","87.90348445"
"4456",Nepal,NPL,"790","1998","14202",Jhapa,"3",East,Mechi,Jhapa,Jhapa,"0",NA,flood,1998-0221,"26.58512704","87.91632788"
"4456",Nepal,NPL,"790","1998","14249",Mahottari,"3",Central,Janakpur,Mahottari,Mahottari,"0",NA,flood,1998-0221,"26.87862024","85.82273832"
"4456",Nepal,NPL,"790","1998","14255",Makwanpur,"3",Central,Narayani,Makwanpur,Makwanpur,"0",NA,flood,1998-0221,"27.46994485","85.08120085"
"4456",Nepal,NPL,"790","1998","14291",Palpa,"3",West,Lumbini,Palpa,Palpa,"0",NA,flood,1998-0221,"27.81731576","83.62684541"
"4456",Nepal,NPL,"790","1998","14294",Panchthar,"3",East,Mechi,Panchthar,Panchthar,"0",NA,flood,1998-0221,"27.11337157","87.77651847"
"4456",Nepal,NPL,"790","1998","14300",Parsa,"3",Central,Narayani,Parsa,Parsa,"0",NA,flood,1998-0221,"27.23801982","84.78375665"
"4456",Nepal,NPL,"790","1998","14313",Rasuwa,"3",Central,Bagmati,Rasuwa,Rasuwa,"0",NA,flood,1998-0221,"28.18475101","85.41610352"
"4456",Nepal,NPL,"790","1998","14318",Rautahat,"3",Central,Narayani,Rautahat,Rautahat,"0",NA,flood,1998-0221,"27.00149079","85.30494916"
"4456",Nepal,NPL,"790","1998","14330",Rupandehi,"3",West,Lumbini,Rupandehi,Rupandehi,"0",NA,flood,1998-0221,"27.57685316","83.39118063"
"4456",Nepal,NPL,"790","1998","14343",Sarlahi,"3",Central,Janakpur,Sarlahi,Sarlahi,"0",NA,flood,1998-0221,"26.98640254","85.56691433"
"4456",Nepal,NPL,"790","1998","14390",Taplejung,"3",East,Mechi,Taplejung,Taplejung,"0",NA,flood,1998-0221,"27.58005501","87.82388638"
"4458",Nepal,NPL,"790","2003","14091",Baglung,"3",West,Dhaualagiri,Baglung,Baglung,"0",NA,flood,2003-0341,"28.34688992","83.25261854"
"4458",Nepal,NPL,"790","2003","14105",Baitadi,"3",Far-Western,Mahakali,Baitadi,Baitadi,"0",NA,flood,2003-0341,"29.50751599","80.57209181"
"4458",Nepal,NPL,"790","2003","14111",Bajura,"3",Far-Western,Seti,Bajura,Bajura,"0",NA,flood,2003-0341,"29.56132324","81.56589183"
"4458",Nepal,NPL,"790","2003","14115",Banke,"3",Mid-Western,Bheri,Banke,Banke,"0",NA,flood,2003-0341,"28.08506134","81.82445332"
"4458",Nepal,NPL,"790","2003","14122",Bara,"3",Central,Narayani,Bara,Bara,"0",NA,flood,2003-0341,"27.10863016","85.07288901"
"4458",Nepal,NPL,"790","2003","14131",Bhojpur,"3",East,Koshi,Bhojpur,Bhojpur,"0",NA,flood,2003-0341,"27.17952946","87.06865533"
"4458",Nepal,NPL,"790","2003","14143",Dang,"3",Mid-Western,Rapti,Dang,Dang,"0",NA,flood,2003-0341,"27.96523787","82.41155673"
"4458",Nepal,NPL,"790","2003","14157",Dhading,"3",Central,Bagmati,Dhading,Dhading,"0",NA,flood,2003-0341,"27.94894272","84.95825539"
"4458",Nepal,NPL,"790","2003","14163",Dhanusa,"3",Central,Janakpur,Dhanusa,Dhanusha,"0",NA,flood,2003-0341,"26.83057281","86.03660878"
"4458",Nepal,NPL,"790","2003","14168",Dolakha,"3",Central,Janakpur,Dolakha,Dolakha,"0",NA,flood,2003-0341,"27.78583782","86.20023138"
"4458",Nepal,NPL,"790","2003","14181",Gorkha,"3",West,Gandaki,Gorkha,Gorkha,"0",NA,flood,2003-0341,"28.31735356","84.79235115"
"4458",Nepal,NPL,"790","2003","14185",Gulmi,"3",West,Lumbini,Gulmi,Gulmi,"0",NA,flood,2003-0341,"28.09454597","83.30769385"
"4458",Nepal,NPL,"790","2003","14192",Ilam,"3",East,Mechi,Ilam,Ilam,"0",NA,flood,2003-0341,"26.8810675","87.90348445"
"4458",Nepal,NPL,"790","2003","14197",Jajarkot,"3",Mid-Western,Bheri,Jajarkot,Jajarkot,"0",NA,flood,2003-0341,"28.86566509","82.16941171"
"4458",Nepal,NPL,"790","2003","14203",Jhapa,"3",East,Mechi,Jhapa,Jhapa,"0",NA,flood,2003-0341,"26.58512704","87.91632788"
"4458",Nepal,NPL,"790","2003","14220",Kanchanpur,"3",Far-Western,Mahakali,Kanchanpur,Kanchanpur,"0",NA,flood,2003-0341,"28.85918995","80.32494795"
"4458",Nepal,NPL,"790","2003","14227",Kapilbastu,"3",West,Lumbini,Kapilbastu,Kapilvastu,"0",NA,flood,2003-0341,"27.62835206","82.98563224"
"4458",Nepal,NPL,"790","2003","14228",Kaski,"3",West,Gandaki,Kaski,Kaski,"0",NA,flood,2003-0341,"28.35483726","83.99862316"
"4458",Nepal,NPL,"790","2003","14238",Khotang,"3",East,Sagarmatha,Khotang,Khotang,"0",NA,flood,2003-0341,"27.167664","86.79012995"
"4458",Nepal,NPL,"790","2003","14244",Lamjung,"3",West,Gandaki,Lamjung,Lamjung,"0",NA,flood,2003-0341,"28.28895485","84.43327713"
"4458",Nepal,NPL,"790","2003","14250",Mahottari,"3",Central,Janakpur,Mahottari,Mahottari,"0",NA,flood,2003-0341,"26.87862024","85.82273832"
"4458",Nepal,NPL,"790","2003","14256",Makwanpur,"3",Central,Narayani,Makwanpur,Makwanpur,"0",NA,flood,2003-0341,"27.46994485","85.08120085"
"4458",Nepal,NPL,"790","2003","14267",Morang,"3",East,Koshi,Morang,Morang,"0",NA,flood,2003-0341,"26.61669552","87.47181543"
"4458",Nepal,NPL,"790","2003","14283",Nuwakot,"3",Central,Bagmati,Nuwakot,Nuwakot,"0",NA,flood,2003-0341,"27.91433609","85.23506275"
"4458",Nepal,NPL,"790","2003","14287",Okhaldhunga,"3",East,Sagarmatha,Okhaldhunga,Okhaldunda,"0",NA,flood,2003-0341,"27.32968995","86.42208086"
"4458",Nepal,NPL,"790","2003","14297",Parbat,"3",West,Dhaualagiri,Parbat,Parbat,"0",NA,flood,2003-0341,"28.20931464","83.68029572"
"4458",Nepal,NPL,"790","2003","14314",Rasuwa,"3",Central,Bagmati,Rasuwa,Rasuwa,"0",NA,flood,2003-0341,"28.18475101","85.41610352"
"4458",Nepal,NPL,"790","2003","14319",Rautahat,"3",Central,Narayani,Rautahat,Rauthat,"0",NA,flood,2003-0341,"27.00149079","85.30494916"
"4458",Nepal,NPL,"790","2003","14327",Rukum,"3",Mid-Western,Rapti,Rukum,Rukum,"0",NA,flood,2003-0341,"28.7014046","82.66505658"
"4458",Nepal,NPL,"790","2003","14331",Rupandehi,"3",West,Lumbini,Rupandehi,Rupandehi,"0",NA,flood,2003-0341,"27.57685316","83.39118063"
"4458",Nepal,NPL,"790","2003","14337",Saptari,"3",East,Sagarmatha,Saptari,Saptari,"0",NA,flood,2003-0341,"26.59782502","86.74921823"
"4458",Nepal,NPL,"790","2003","14344",Sarlahi,"3",Central,Janakpur,Sarlahi,Sarlahi,"0",NA,flood,2003-0341,"26.98640254","85.56691433"
"4458",Nepal,NPL,"790","2003","14350",Sindhuli,"3",Central,Janakpur,Sindhuli,Sindhuli,"0",NA,flood,2003-0341,"27.20078376","85.94713344"
"4458",Nepal,NPL,"790","2003","14355",Sindhupalchok,"3",Central,Bagmati,Sindhupalchok,Sindhupachowk,"0",NA,flood,2003-0341,"27.91463216","85.74159439"
"4458",Nepal,NPL,"790","2003","14362",Siraha,"3",East,Sagarmatha,Siraha,Siraha,"0",NA,flood,2003-0341,"26.74559139","86.34695887"
"4458",Nepal,NPL,"790","2003","14366",Solukhumbu,"3",East,Sagarmatha,Solukhumbu,Solukhumbu,"0",NA,flood,2003-0341,"27.71000485","86.72345995"
"4458",Nepal,NPL,"790","2003","14371",Sunsari,"3",East,Koshi,Sunsari,Sunsari,"0",NA,flood,2003-0341,"26.65168012","87.17244306"
"4458",Nepal,NPL,"790","2003","14386",Tanahu,"3",West,Gandaki,Tanahu,Tanahu,"0",NA,flood,2003-0341,"27.95553347","84.25310076"
"4458",Nepal,NPL,"790","2003","14391",Taplejung,"3",East,Mechi,Taplejung,Taplejung,"0",NA,flood,2003-0341,"27.58005501","87.82388638"
"4458",Nepal,NPL,"790","2003","14396",Terhathum,"3",East,Koshi,Terhathum,Terathum,"0",NA,flood,2003-0341,"27.15437248","87.55107653"
"4458",Nepal,NPL,"790","2003","14399",Udayapur,"3",East,Sagarmatha,Udayapur,Udayapur,"0",NA,flood,2003-0341,"26.90192818","86.68457262"
"4459",Nepal,NPL,"790","2004","14123",Bara,"3",Central,Narayani,Bara,Bara,"0",NA,flood,2004-0298,"27.10863016","85.07288901"
"4459",Nepal,NPL,"790","2004","14144",Dang,"3",Mid-Western,Rapti,Dang,Dang,"0",NA,flood,2004-0298,"27.96523787","82.41155673"
"4459",Nepal,NPL,"790","2004","14164",Dhanusa,"3",Central,Janakpur,Dhanusa,Dhanusha,"0",NA,flood,2004-0298,"26.83057281","86.03660878"
"4459",Nepal,NPL,"790","2004","14251",Mahottari,"3",Central,Janakpur,Mahottari,Mahottari,"0",NA,flood,2004-0298,"26.87862024","85.82273832"
"4459",Nepal,NPL,"790","2004","14257",Makwanpur,"3",Central,Narayani,Makwanpur,Makwanpur,"0",NA,flood,2004-0298,"27.46994485","85.08120085"
"4459",Nepal,NPL,"790","2004","14268",Morang,"3",East,Koshi,Morang,Morang,"0",NA,flood,2004-0298,"26.61669552","87.47181543"
"4459",Nepal,NPL,"790","2004","14288",Okhaldhunga,"3",East,Sagarmatha,Okhaldhunga,Okhaldhunga,"0",NA,flood,2004-0298,"27.32968995","86.42208086"
"4459",Nepal,NPL,"790","2004","14303",Pyuthan,"3",Mid-Western,Rapti,Pyuthan,Pyuthan,"0",NA,flood,2004-0298,"28.11603721","82.86655627"
"4459",Nepal,NPL,"790","2004","14306",Ramechhap,"3",Central,Janakpur,Ramechhap,Ramechhap,"0",NA,flood,2004-0298,"27.51252127","86.17961506"
"4459",Nepal,NPL,"790","2004","14320",Rautahat,"3",Central,Narayani,Rautahat,Rautahat,"0",NA,flood,2004-0298,"27.00149079","85.30494916"
"4459",Nepal,NPL,"790","2004","14338",Saptari,"3",East,Sagarmatha,Saptari,Saptari,"0",NA,flood,2004-0298,"26.59782502","86.74921823"
"4459",Nepal,NPL,"790","2004","14345",Sarlahi,"3",Central,Janakpur,Sarlahi,Sarlahi,"0",NA,flood,2004-0298,"26.98640254","85.56691433"
"4459",Nepal,NPL,"790","2004","14351",Sindhuli,"3",Central,Janakpur,Sindhuli,Sindhuli,"0",NA,flood,2004-0298,"27.20078376","85.94713344"
"4459",Nepal,NPL,"790","2004","14363",Siraha,"3",East,Sagarmatha,Siraha,Siraha,"0",NA,flood,2004-0298,"26.74559139","86.34695887"
"4459",Nepal,NPL,"790","2004","14372",Sunsari,"3",East,Koshi,Sunsari,Sunsari,"0",NA,flood,2004-0298,"26.65168012","87.17244306"
"4459",Nepal,NPL,"790","2004","14400",Udayapur,"3",East,Sagarmatha,Udayapur,Udayapur,"0",NA,flood,2004-0298,"26.90192818","86.68457262"
"4461",Nepal,NPL,"790","2005","14106",Baitadi,"3",Far-Western,Mahakali,Baitadi,Baitadi,"0",NA,flood,2005-0556,"29.50751599","80.57209181"
"4461",Nepal,NPL,"790","2005","14136",Dadeldhura,"3",Far-Western,Mahakali,Dadeldhura,Dadeldhura,"0",NA,flood,2005-0556,"29.22334552","80.49033885"
"4461",Nepal,NPL,"790","2005","14153",Darchula,"3",Far-Western,Mahakali,Darchula,Darchula,"0",NA,flood,2005-0556,"29.89156096","80.79208143"
"4461",Nepal,NPL,"790","2005","14221",Kanchanpur,"3",Far-Western,Mahakali,Kanchanpur,Kanchanpur,"0",NA,flood,2005-0556,"28.85918995","80.32494795"
"4463",Nepal,NPL,"790","2007","14165",Dhanusa,"3",Central,Janakpur,Dhanusa,Dhanusha,"0",NA,flood,2007-0307,"26.83057281","86.03660878"
"4463",Nepal,NPL,"790","2007","14252",Mahottari,"3",Central,Janakpur,Mahottari,Mahottari district,"0",NA,flood,2007-0307,"26.87862024","85.82273832"
"4463",Nepal,NPL,"790","2007","14352",Sindhuli,"3",Central,Janakpur,Sindhuli,Sindhuli,"0",NA,flood,2007-0307,"27.20078376","85.94713344"
"4464",Nepal,NPL,"790","2008","14117",Banke,"3",Mid-Western,Bheri,Banke,Banke,"0",NA,flood,2008-0431,"28.08506134","81.82445332"
"4464",Nepal,NPL,"790","2008","14124",Bardiya,"3",Mid-Western,Bheri,Bardiya,Bardeya,"0",NA,flood,2008-0431,"28.38364375","81.40425644"
"4464",Nepal,NPL,"790","2008","14137",Dadeldhura,"3",Far-Western,Mahakali,Dadeldhura,Dedeldhura,"0",NA,flood,2008-0431,"29.22334552","80.49033885"
"4464",Nepal,NPL,"790","2008","14146",Dang,"3",Mid-Western,Rapti,Dang,Dang,"0",NA,flood,2008-0431,"27.96523787","82.41155673"
"4464",Nepal,NPL,"790","2008","14174",Doti,"3",Far-Western,Seti,Doti,Doti,"0",NA,flood,2008-0431,"29.17092607","80.89637748"
"4464",Nepal,NPL,"790","2008","14222",Kanchanpur,"3",Far-Western,Mahakali,Kanchanpur,Kanchanpur,"0",NA,flood,2008-0431,"28.85918995","80.32494795"
"4464",Nepal,NPL,"790","2008","14333",Salyan,"3",Mid-Western,Rapti,Salyan,Salyan,"0",NA,flood,2008-0431,"28.3959801","82.14174717"
"4466",Nepal,NPL,"790","2009","14086",Achham,"3",Far-Western,Seti,Achham,Achham,"0",NA,flood,2009-0434,"29.11195352","81.30014326"
"4466",Nepal,NPL,"790","2009","14107",Baitadi,"3",Far-Western,Mahakali,Baitadi,Baitadi,"0",NA,flood,2009-0434,"29.50751599","80.57209181"
"4466",Nepal,NPL,"790","2009","14109",Bajhang,"3",Far-Western,Seti,Bajhang,Bhajang,"0",NA,flood,2009-0434,"29.70820322","81.18075245"
"4466",Nepal,NPL,"790","2009","14118",Banke,"3",Mid-Western,Bheri,Banke,Banke,"0",NA,flood,2009-0434,"28.08506134","81.82445332"
"4466",Nepal,NPL,"790","2009","14125",Bardiya,"3",Mid-Western,Bheri,Bardiya,Bardiya,"0",NA,flood,2009-0434,"28.38364375","81.40425644"
"4466",Nepal,NPL,"790","2009","14138",Dadeldhura,"3",Far-Western,Mahakali,Dadeldhura,Dadeldhura,"0",NA,flood,2009-0434,"29.22334552","80.49033885"
"4466",Nepal,NPL,"790","2009","14175",Doti,"3",Far-Western,Seti,Doti,Doti,"0",NA,flood,2009-0434,"29.17092607","80.89637748"
"4466",Nepal,NPL,"790","2009","14211",Jumla,"3",Mid-Western,Karnali,Jumla,Jumla,"0",NA,flood,2009-0434,"29.27123832","82.21888088"
"4466",Nepal,NPL,"790","2009","14217",Kalikot,"3",Mid-Western,Karnali,Kalikot,Kalikot,"0",NA,flood,2009-0434,"29.19456533","81.7523238"
"4466",Nepal,NPL,"790","2009","14223",Kanchanpur,"3",Far-Western,Mahakali,Kanchanpur,Kanchanpur,"0",NA,flood,2009-0434,"28.85918995","80.32494795"
"4467",Nepal,NPL,"790","2010","14193",Ilam,"3",East,Mechi,Ilam,Ilam,"0",NA,flood,2010-0333,"26.8810675","87.90348445"
"4467",Nepal,NPL,"790","2010","14206",Jhapa,"3",East,Mechi,Jhapa,Jhapa,"0",NA,flood,2010-0333,"26.58512704","87.91632788"
"4468",Nepal,NPL,"790","2010","14087",Achham,"3",Far-Western,Seti,Achham,Achham,"0",NA,flood,2010-0452,"29.11195352","81.30014326"
"4468",Nepal,NPL,"790","2010","14092",Baglung,"3",West,Dhaualagiri,Baglung,Baglung,"0",NA,flood,2010-0452,"28.34688992","83.25261854"
"4468",Nepal,NPL,"790","2010","14112",Bajura,"3",Far-Western,Seti,Bajura,Bajura,"0",NA,flood,2010-0452,"29.56132324","81.56589183"
"4468",Nepal,NPL,"790","2010","14119",Banke,"3",Mid-Western,Bheri,Banke,Banke,"0",NA,flood,2010-0452,"28.08506134","81.82445332"
"4468",Nepal,NPL,"790","2010","14126",Bardiya,"3",Mid-Western,Bheri,Bardiya,Bardiya,"0",NA,flood,2010-0452,"28.38364375","81.40425644"
"4468",Nepal,NPL,"790","2010","14139",Dadeldhura,"3",Far-Western,Mahakali,Dadeldhura,Dadeldhura,"0",NA,flood,2010-0452,"29.22334552","80.49033885"
"4468",Nepal,NPL,"790","2010","14141",Dailekh,"3",Mid-Western,Bheri,Dailekh,Dailekh,"0",NA,flood,2010-0452,"28.87977388","81.68258138"
"4468",Nepal,NPL,"790","2010","14148",Dang,"3",Mid-Western,Rapti,Dang,Dang,"0",NA,flood,2010-0452,"27.96523787","82.41155673"
"4468",Nepal,NPL,"790","2010","14166",Dhanusa,"3",Central,Janakpur,Dhanusa,Dhanusa,"0",NA,flood,2010-0452,"26.83057281","86.03660878"
"4468",Nepal,NPL,"790","2010","14169",Dolakha,"3",Central,Janakpur,Dolakha,Dolakha,"0",NA,flood,2010-0452,"27.78583782","86.20023138"
"4468",Nepal,NPL,"790","2010","14173",Dolpa,"3",Mid-Western,Karnali,Dolpa,Dolpa,"0",NA,flood,2010-0452,"29.17061174","83.05447446"
"4468",Nepal,NPL,"790","2010","14194",Ilam,"3",East,Mechi,Ilam,Ilam,"0",NA,flood,2010-0452,"26.8810675","87.90348445"
"4468",Nepal,NPL,"790","2010","14198",Jajarkot,"3",Mid-Western,Bheri,Jajarkot,Jajarkot,"0",NA,flood,2010-0452,"28.86566509","82.16941171"
"4468",Nepal,NPL,"790","2010","14207",Jhapa,"3",East,Mechi,Jhapa,Jahpa,"0",NA,flood,2010-0452,"26.58512704","87.91632788"
"4468",Nepal,NPL,"790","2010","14218",Kalikot,"3",Mid-Western,Karnali,Kalikot,Kalikot,"0",NA,flood,2010-0452,"29.19456533","81.7523238"
"4468",Nepal,NPL,"790","2010","14224",Kanchanpur,"3",Far-Western,Mahakali,Kanchanpur,Kanchanpur,"0",NA,flood,2010-0452,"28.85918995","80.32494795"
"4468",Nepal,NPL,"790","2010","14230",Kaski,"3",West,Gandaki,Kaski,Kaski,"0",NA,flood,2010-0452,"28.35483726","83.99862316"
"4468",Nepal,NPL,"790","2010","14258",Makwanpur,"3",Central,Narayani,Makwanpur,Makawanpur,"0",NA,flood,2010-0452,"27.46994485","85.08120085"
"4468",Nepal,NPL,"790","2010","14269",Morang,"3",East,Koshi,Morang,Morang,"0",NA,flood,2010-0452,"26.61669552","87.47181543"
"4468",Nepal,NPL,"790","2010","14299",Parbat,"3",West,Dhaualagiri,Parbat,Parbat,"0",NA,flood,2010-0452,"28.20931464","83.68029572"
"4468",Nepal,NPL,"790","2010","14301",Parsa,"3",Central,Narayani,Parsa,Parsa,"0",NA,flood,2010-0452,"27.23801982","84.78375665"
"4468",Nepal,NPL,"790","2010","14304",Pyuthan,"3",Mid-Western,Rapti,Pyuthan,Pyuthan,"0",NA,flood,2010-0452,"28.11603721","82.86655627"
"4468",Nepal,NPL,"790","2010","14322",Rautahat,"3",Central,Narayani,Rautahat,Rautahat,"0",NA,flood,2010-0452,"27.00149079","85.30494916"
"4468",Nepal,NPL,"790","2010","14328",Rukum,"3",Mid-Western,Rapti,Rukum,Rukum,"0",NA,flood,2010-0452,"28.7014046","82.66505658"
"4468",Nepal,NPL,"790","2010","14335",Sankhuwasabha,"3",East,Koshi,Sankhuwasabha,Sankhuwasabha,"0",NA,flood,2010-0452,"27.58113971","87.28099624"
"4468",Nepal,NPL,"790","2010","14339",Saptari,"3",East,Sagarmatha,Saptari,Saptari,"0",NA,flood,2010-0452,"26.59782502","86.74921823"
"4468",Nepal,NPL,"790","2010","14346",Sarlahi,"3",Central,Janakpur,Sarlahi,Sarlahi,"0",NA,flood,2010-0452,"26.98640254","85.56691433"
"4468",Nepal,NPL,"790","2010","14353",Sindhuli,"3",Central,Janakpur,Sindhuli,Sindhuli,"0",NA,flood,2010-0452,"27.20078376","85.94713344"
"4468",Nepal,NPL,"790","2010","14376",Sunsari,"3",East,Koshi,Sunsari,Sunsari,"0",NA,flood,2010-0452,"26.65168012","87.17244306"
"4468",Nepal,NPL,"790","2010","14387",Tanahu,"3",West,Gandaki,Tanahu,Tanahu,"0",NA,flood,2010-0452,"27.95553347","84.25310076"
"4468",Nepal,NPL,"790","2010","14392",Taplejung,"3",East,Mechi,Taplejung,Taplegunj,"0",NA,flood,2010-0452,"27.58005501","87.82388638"
"4468",Nepal,NPL,"790","2010","14401",Udayapur,"3",East,Sagarmatha,Udayapur,Udayapur,"0",NA,flood,2010-0452,"26.90192818","86.68457262"
"4472",Nepal,NPL,"790","2013","14089",Achham,"3",Far-Western,Seti,Achham,Achham,"0",NA,flood,2013-0456,"29.11195352","81.30014326"
"4472",Nepal,NPL,"790","2013","14108",Baitadi,"3",Far-Western,Mahakali,Baitadi,Baitadi,"0",NA,flood,2013-0456,"29.50751599","80.57209181"
"4472",Nepal,NPL,"790","2013","14110",Bajhang,"3",Far-Western,Seti,Bajhang,Bajhang,"0",NA,flood,2013-0456,"29.70820322","81.18075245"
"4472",Nepal,NPL,"790","2013","14127",Bardiya,"3",Mid-Western,Bheri,Bardiya,Bardia,"0",NA,flood,2013-0456,"28.38364375","81.40425644"
"4472",Nepal,NPL,"790","2013","14140",Dadeldhura,"3",Far-Western,Mahakali,Dadeldhura,Dadheldhura,"0",NA,flood,2013-0456,"29.22334552","80.49033885"
"4472",Nepal,NPL,"790","2013","14142",Dailekh,"3",Mid-Western,Bheri,Dailekh,Dailekh,"0",NA,flood,2013-0456,"28.87977388","81.68258138"
"4472",Nepal,NPL,"790","2013","14149",Dang,"3",Mid-Western,Rapti,Dang,Dang,"0",NA,flood,2013-0456,"27.96523787","82.41155673"
"4472",Nepal,NPL,"790","2013","14154",Darchula,"3",Far-Western,Mahakali,Darchula,Darchula,"0",NA,flood,2013-0456,"29.89156096","80.79208143"
"4472",Nepal,NPL,"790","2013","14162",Dhankuta,"3",East,Koshi,Dhankuta,Dhankuta,"0",NA,flood,2013-0456,"26.99110971","87.33355772"
"4472",Nepal,NPL,"790","2013","14176",Doti,"3",Far-Western,Seti,Doti,Doti,"0",NA,flood,2013-0456,"29.17092607","80.89637748"
"4472",Nepal,NPL,"790","2013","14189",Humla,"3",Mid-Western,Karnali,Humla,Humla,"0",NA,flood,2013-0456,"30.03342349","81.88132596"
"4472",Nepal,NPL,"790","2013","14209",Jhapa,"3",East,Mechi,Jhapa,Jhapa,"0",NA,flood,2013-0456,"26.58512704","87.91632788"
"4472",Nepal,NPL,"790","2013","14219",Kalikot,"3",Mid-Western,Karnali,Kalikot,Kalikot,"0",NA,flood,2013-0456,"29.19456533","81.7523238"
"4472",Nepal,NPL,"790","2013","14225",Kanchanpur,"3",Far-Western,Mahakali,Kanchanpur,Kanchanpur,"0",NA,flood,2013-0456,"28.85918995","80.32494795"
"4472",Nepal,NPL,"790","2013","14270",Morang,"3",East,Koshi,Morang,Morang,"0",NA,flood,2013-0456,"26.61669552","87.47181543"
"4472",Nepal,NPL,"790","2013","14289",Okhaldhunga,"3",East,Sagarmatha,Okhaldhunga,Okhaldhunga,"0",NA,flood,2013-0456,"27.32968995","86.42208086"
"4472",Nepal,NPL,"790","2013","14305",Pyuthan,"3",Mid-Western,Rapti,Pyuthan,Pyuthan,"0",NA,flood,2013-0456,"28.11603721","82.86655627"
"4472",Nepal,NPL,"790","2013","14326",Rolpa,"3",Mid-Western,Rapti,Rolpa,Rolpa,"0",NA,flood,2013-0456,"28.3453962","82.63052622"
"4472",Nepal,NPL,"790","2013","14340",Saptari,"3",East,Sagarmatha,Saptari,Saptari,"0",NA,flood,2013-0456,"26.59782502","86.74921823"
"4472",Nepal,NPL,"790","2013","14369",Solukhumbu,"3",East,Sagarmatha,Solukhumbu,Solukhumbu,"0",NA,flood,2013-0456,"27.71000485","86.72345995"
"4472",Nepal,NPL,"790","2013","14378",Sunsari,"3",East,Koshi,Sunsari,Sunsari,"0",NA,flood,2013-0456,"26.65168012","87.17244306"
"4472",Nepal,NPL,"790","2013","14394",Taplejung,"3",East,Mechi,Taplejung,Taplejung,"0",NA,flood,2013-0456,"27.58005501","87.82388638"
"4472",Nepal,NPL,"790","2013","14403",Udayapur,"3",East,Sagarmatha,Udayapur,Udayapur,"0",NA,flood,2013-0456,"26.90192818","86.68457262"
"4473",Nepal,NPL,"790","2013","14271",Morang,"3",East,Koshi,Morang,Morang,"0",NA,flood,2013-0576,"26.61669552","87.47181543"
"4473",Nepal,NPL,"790","2013","14379",Sunsari,"3",East,Koshi,Sunsari,Sunsari,"0",NA,flood,2013-0576,"26.65168012","87.17244306"
"4474",Nepal,NPL,"790","2014","14241",Lalitpur,"3",Central,Bagmati,Lalitpur,Lalitpur,"0",NA,flood,2014-0246,"27.53712611","85.34406563"
"4474",Nepal,NPL,"790","2014","14357",Sindhupalchok,"3",Central,Bagmati,Sindhupalchok,Sindhupalchok,"0",NA,flood,2014-0246,"27.91463216","85.74159439"
"4476",Nepal,NPL,"790","2014","14120",Banke,"3",Mid-Western,Bheri,Banke,Banke,"0",NA,flood,2014-0272,"28.08506134","81.82445332"
"4476",Nepal,NPL,"790","2014","14128",Bardiya,"3",Mid-Western,Bheri,Bardiya,Bardyia,"0",NA,flood,2014-0272,"28.38364375","81.40425644"
"4476",Nepal,NPL,"790","2014","14150",Dang,"3",Mid-Western,Rapti,Dang,Dang,"0",NA,flood,2014-0272,"27.96523787","82.41155673"
"4476",Nepal,NPL,"790","2014","14334",Salyan,"3",Mid-Western,Rapti,Salyan,Salyan,"0",NA,flood,2014-0272,"28.3959801","82.14174717"
"4476",Nepal,NPL,"790","2014","14380",Surkhet,"3",Mid-Western,Bheri,Surkhet,Surkhet,"0",NA,flood,2014-0272,"28.64242717","81.58632356"
"4694",Pakistan,PAK,"770","1993","15057",Kasur,"3",Punjab,Lahore,Kasur,Kasur,"0",NA,flood,1993-0041,"31.04562687","74.13513725"
"4694",Pakistan,PAK,"770","1993","15065",Khanewal,"3",Punjab,Multan,Khanewal,Khanewal,"0",NA,flood,1993-0041,"30.35529835","72.014496"
"4694",Pakistan,PAK,"770","1993","15091",Lodhran,"3",Punjab,Multan,Lodhran,Lodhran,"0",NA,flood,1993-0041,"29.64272227","71.730697"
"4694",Pakistan,PAK,"770","1993","15113",Muzaffargarh,"3",Punjab,Dera Ghazi Khan,Muzaffargarh,Muzaffargarh,"0",NA,flood,1993-0041,"30.02648892","71.02779139"
"4694",Pakistan,PAK,"770","1993","15204",Rajan Pur,"3",Punjab,Dera Ghazi Khan,Rajan Pur,Rajanpur,"0",NA,flood,1993-0041,"29.13714633","70.16366375"
"4694",Pakistan,PAK,"770","1993","15217",Sheikhupura,"3",Punjab,Lahore,Sheikhupura,Sheikhupura,"0",NA,flood,1993-0041,"31.72845856","74.11268071"
"4721",Pakistan,PAK,"770","2002","15253",Swabi,"3",N.W.F.P.,Mardan,Swabi,Swabi,"0",NA,flood,2002-0543,"34.13624248","72.46791818"
"4727",Pakistan,PAK,"770","2003","14930",Awaran,"3",Baluchistan,Kalat,Awaran,Awaran,"0",NA,flood,2003-0359,"26.2668239","65.36172789"
"4727",Pakistan,PAK,"770","2003","14948",Badin,"3",Sind,Hyderabad,Badin,Badin,"0",NA,flood,2003-0359,"24.72000106","68.86415853"
"4727",Pakistan,PAK,"770","2003","14985",Bolan,"3",Baluchistan,Nasirabad,Bolan,Bolan,"0",NA,flood,2003-0359,"29.18655715","67.73337963"
"4727",Pakistan,PAK,"770","2003","14999",Dadu,"3",Sind,Hyderabad,Dadu,Dadu,"0",NA,flood,2003-0359,"26.82705076","67.55074316"
"4727",Pakistan,PAK,"770","2003","15031",Jafarabad,"3",Baluchistan,Nasirabad,Jafarabad,Jafarabad,"0",NA,flood,2003-0359,"28.27727599","68.15230291"
"4727",Pakistan,PAK,"770","2003","15036",Jhal Magsi,"3",Baluchistan,Nasirabad,Jhal Magsi,Jhal Magsi,"0",NA,flood,2003-0359,"28.38695676","67.55444947"
"4727",Pakistan,PAK,"770","2003","15071",Khuzdar,"3",Baluchistan,Kalat,Khuzdar,Khuzdar,"0",NA,flood,2003-0359,"27.49908033","66.70188635"
"4727",Pakistan,PAK,"770","2003","15090",Lasbela,"3",Baluchistan,Kalat,Lasbela,Lasbela,"0",NA,flood,2003-0359,"25.81046075","66.65198663"
"4727",Pakistan,PAK,"770","2003","15218",Shikarpur,"3",Sind,Larkana,Shikarpur,Shikarpur,"0",NA,flood,2003-0359,"27.92413229","68.63465926"
"4731",Pakistan,PAK,"770","2005","14928",Abbottabad,"3",N.W.F.P.,Hazara,Abbottabad,Abbottabad,"0",NA,flood,2005-0079,"34.12132065","73.25301763"
"4731",Pakistan,PAK,"770","2005","14981",Battagram,"3",N.W.F.P.,Hazara,Battagram,Battagram,"0",NA,flood,2005-0079,"34.80745965","73.14966088"
"4731",Pakistan,PAK,"770","2005","14994",Chitral,"3",N.W.F.P.,Malakand,Chitral,Yarkhoon valleys,"0",NA,flood,2005-0079,"36.22647705","72.23618133"
"4731",Pakistan,PAK,"770","2005","15003",Dir,"3",N.W.F.P.,Malakand,Dir,Dir,"0",NA,flood,2005-0079,"35.13698651","71.98197857"
"4731",Pakistan,PAK,"770","2005","15061",Kech,"3",Baluchistan,Makran,Kech,Turbat,"0",NA,flood,2005-0079,"26.01734455","63.07480738"
"4731",Pakistan,PAK,"770","2005","15098",Mansehra,"3",N.W.F.P.,Hazara,Mansehra,Mansehra,"0",NA,flood,2005-0079,"34.7009732","73.41137116"
"4731",Pakistan,PAK,"770","2005","15163",Pishin,"3",Baluchistan,Quetta,Pishin,Pishin,"0",NA,flood,2005-0079,"30.65693176","67.08361998"
"4731",Pakistan,PAK,"770","2005","15197",Qilla Abdullah,"3",Baluchistan,Quetta,Qilla Abdullah,Chaman,"0",NA,flood,2005-0079,"30.89350996","66.76913876"
"4731",Pakistan,PAK,"770","2005","15257",Swat,"3",N.W.F.P.,Malakand,Swat,Swat,"0",NA,flood,2005-0079,"35.25719914","72.46150207"
"4732",Pakistan,PAK,"770","2005","15022",Gwadar,"3",Baluchistan,Makran,Gwadar,Gwadar,"0",NA,flood,2005-0170,"25.41622635","63.167094"
"4732",Pakistan,PAK,"770","2005","15062",Kech,"3",Baluchistan,Makran,Kech,Turbat,"0",NA,flood,2005-0170,"26.01734455","63.07480738"
"4734",Pakistan,PAK,"770","2005","14990",Charsadda,"3",N.W.F.P.,Peshawar,Charsadda,Charsadda,"0",NA,flood,2005-0360,"34.24436491","71.73782445"
"4734",Pakistan,PAK,"770","2005","14995",Chitral,"3",N.W.F.P.,Malakand,Chitral,Chitral,"0",NA,flood,2005-0360,"36.22647705","72.23618133"
"4734",Pakistan,PAK,"770","2005","15000",Dadu,"3",Sind,Hyderabad,Dadu,Dadu,"0",NA,flood,2005-0360,"26.82705076","67.55074316"
"4734",Pakistan,PAK,"770","2005","15011",Ghotki,"3",Sind,Sukkur,Ghotki,Ghotki,"0",NA,flood,2005-0360,"27.83364326","69.67599275"
"4734",Pakistan,PAK,"770","2005","15034",Jamshoro,"3",Sind,Hyderabad,Jamshoro,Jamshoro,"0",NA,flood,2005-0360,"25.66253926","67.81018765"
"4734",Pakistan,PAK,"770","2005","15064",Khairpur,"3",Sind,Sukkur,Khairpur,Khairpur,"0",NA,flood,2005-0360,"26.82427591","69.0856316"
"4734",Pakistan,PAK,"770","2005","15143",Nowshera,"3",N.W.F.P.,Peshawar,Nowshera,Nowshera,"0",NA,flood,2005-0360,"33.92172445","71.97826413"
"4734",Pakistan,PAK,"770","2005","15219",Shikarpur,"3",Sind,Larkana,Shikarpur,Shikarpur,"0",NA,flood,2005-0360,"27.92413229","68.63465926"
"4734",Pakistan,PAK,"770","2005","15258",Swat,"3",N.W.F.P.,Malakand,Swat,Swat,"0",NA,flood,2005-0360,"35.25719914","72.46150207"
"4757",Pakistan,PAK,"770","2010","14983",Battagram,"3",N.W.F.P.,Hazara,Battagram,Battagram,"0",NA,flood,2010-0053,"34.80745965","73.14966088"
"4757",Pakistan,PAK,"770","2010","15078",Kohistan,"3",N.W.F.P.,Hazara,Kohistan,Kohistan,"0",NA,flood,2010-0053,"35.34881332","73.18817119"
"4757",Pakistan,PAK,"770","2010","15214",Shangla,"3",N.W.F.P.,Malakand,Shangla,Shangla,"0",NA,flood,2010-0053,"34.80951109","72.72467592"
"4757",Pakistan,PAK,"770","2010","15260",Swat,"3",N.W.F.P.,Malakand,Swat,Swat,"0",NA,flood,2010-0053,"35.25719914","72.46150207"
"4761",Pakistan,PAK,"770","2010","14991",Charsadda,"3",N.W.F.P.,Peshawar,Charsadda,Charsadda,"0",NA,flood,2010-0341,"34.24436491","71.73782445"
"4761",Pakistan,PAK,"770","2010","15004",Dir,"3",N.W.F.P.,Malakand,Dir,Dir Lower,"0",NA,flood,2010-0341,"35.13698651","71.98197857"
"4761",Pakistan,PAK,"770","2010","15144",Nowshera,"3",N.W.F.P.,Peshawar,Nowshera,Noswshehra,"0",NA,flood,2010-0341,"33.92172445","71.97826413"
"4761",Pakistan,PAK,"770","2010","15215",Shangla,"3",N.W.F.P.,Malakand,Shangla,Shangla,"0",NA,flood,2010-0341,"34.80951109","72.72467592"
"4761",Pakistan,PAK,"770","2010","15261",Swat,"3",N.W.F.P.,Malakand,Swat,Swat,"0",NA,flood,2010-0341,"35.25719914","72.46150207"
"4763",Pakistan,PAK,"770","2011","14949",Badin,"3",Sind,Hyderabad,Badin,Badin,"0",NA,flood,2011-0347,"24.72000106","68.86415853"
"4763",Pakistan,PAK,"770","2011","15262",Tando Allahyar,"3",Sind,Hyderabad,Tando Allahyar,Tando Allahyar,"0",NA,flood,2011-0347,"24.98455067","68.46955555"
"4763",Pakistan,PAK,"770","2011","15263",Tando M. Khan,"3",Sind,Hyderabad,Tando M. Khan,Tando Mohammad Khan,"0",NA,flood,2011-0347,"25.46783537","68.81319969"
"4772",Pakistan,PAK,"770","2014","15020",Gujrat,"3",Punjab,Gujranwala,Gujrat,Gujrat,"0",NA,flood,2014-0343,"32.72797249","73.96045675"
"4772",Pakistan,PAK,"770","2014","15024",Hafizabad,"3",Punjab,Gujranwala,Hafizabad,Hafizabad,"0",NA,flood,2014-0343,"32.02659926","73.49610745"
"4772",Pakistan,PAK,"770","2014","15225",Sialkot,"3",Punjab,Gujranwala,Sialkot,Sialko,"0",NA,flood,2014-0343,"32.43010166","74.49452872"
"4933",Peru,PER,"135","2015","15624",Indiana,"3",Loreto,Maynas,Indiana,Indiana,"0",NA,flood,2015-0199,"-3.804237787","-72.87938601"
"4933",Peru,PER,"135","2015","15705",Punchana,"3",Loreto,Maynas,Punchana,Punchana,"0",NA,flood,2015-0199,"-3.544761401","-73.45520812"
"5220",Philippines,PHL,"840","2006","18333",Putik,"3",Zamboanga Del Sur,Zamboanga City,Putik,Putik,"0",NA,flood,2006-0563,"6.939302319","122.092816"
"5220",Philippines,PHL,"840","2006","18914",Tetuan,"3",Zamboanga Del Sur,Zamboanga City,Tetuan,Tetuan,"0",NA,flood,2006-0563,"6.926107338","122.0862031"
"5283",Philippines,PHL,"840","2010","17259",Katuli,"3",Maguindanao,Sultan Kudarat,Katuli,Katuli,"0",NA,flood,2010-0281,"7.245488622","124.2363847"
"5283",Philippines,PHL,"840","2010","18603",Senditan,"3",Maguindanao,Sultan Kudarat,Senditan,Senditan,"0",NA,flood,2010-0281,"7.277680197","124.2487035"
"5309",Philippines,PHL,"840","2011","17266",Klinan 6,"3",South Cotabato,Polomolok,Klinan 6,Klinan 6,"0",NA,flood,2011-0367,"6.17860864","125.1270588"
"5309",Philippines,PHL,"840","2011","18932",Upper Klinan,"3",South Cotabato,Polomolok,Upper Klinan,Upper Klinan,"0",NA,flood,2011-0367,"6.232454633","125.1134273"
"5562",Rwanda,RWA,"517","2001","19632",Mushubi,"3",Amajyepfo,Nyamagabe,Mushubi,Mushubi,"0",NA,flood,2001-0541,"-2.312734341","29.44945665"
"5783",South Africa,ZAF,"560","2012","20245",Makana,"3",Eastern Cape,Cacadu,Makana,Makana,"0",NA,flood,2012-0469,"-33.23566945","26.40873494"
"5783",South Africa,ZAF,"560","2012","20253",Ndlambe,"3",Eastern Cape,Cacadu,Ndlambe,Ndlambe,"0",NA,flood,2012-0469,"-33.5239009","26.7420609"
"6163",Tanzania,TZA,"510","2001","21327",Kigogo,"3",Dar Es Salaam,Kinondoni,Kigogo,Kigogo,"0",NA,flood,2001-0109,"-6.816138762","39.24900635"
"6163",Tanzania,TZA,"510","2001","21359",Manzese,"3",Dar Es Salaam,Kinondoni,Manzese,Manzese,"0",NA,flood,2001-0109,"-6.797857161","39.23119735"
"6163",Tanzania,TZA,"510","2001","21419",Ubungo,"3",Dar Es Salaam,Kinondoni,Ubungo,Ubungo area.,"0",NA,flood,2001-0109,"-6.787859328","39.20560505"
"6179",Tanzania,TZA,"510","2011","21328",Kigogo,"3",Dar Es Salaam,Kinondoni,Kigogo,Kigogo,"0",NA,flood,2011-0535,"-6.816138762","39.24900635"
"6179",Tanzania,TZA,"510","2011","21384",Mwananyamala,"3",Dar Es Salaam,Kinondoni,Mwananyamala,Mwananyamala,"0",NA,flood,2011-0535,"-6.785497037","39.25931353"
"6179",Tanzania,TZA,"510","2011","21412",Tandale,"3",Dar Es Salaam,Kinondoni,Tandale,Tandale,"0",NA,flood,2011-0535,"-6.79431157","39.24234903"
"6179",Tanzania,TZA,"510","2011","21420",Ubungo,"3",Dar Es Salaam,Kinondoni,Ubungo,Ubungo,"0",NA,flood,2011-0535,"-6.787859328","39.20560505"
"1012",Canada,CAN,"20","2003","3530",Squamish-Lillooet C,"3",British Columbia,Squamish-Lillooet,Squamish-Lillooet C,Pemberton,"0",NA,flood,2003-0511,"50.43656014","-123.1242386"
"2408",Greece,GRC,"350","2003","7019",Saronikos,"3",Attica,Attica,Saronikos,Aguistri Island,"0",NA,flood,2003-0044,"37.78468611","23.93888924"
"3454",Italy,ITA,"325","1996","10392",Carrara,"3",Toscana,Massa Carrara,Carrara,Carrara,"0",NA,flood,1996-0148,"44.08263753","10.09490277"
"3454",Italy,ITA,"325","1996","10450",Massa,"3",Toscana,Massa Carrara,Massa,Massa,"0",NA,flood,1996-0148,"44.05587533","10.1623538"
"3480",Italy,ITA,"325","2009","10500",Scaletta Zanclea,"3",Sicily,Messina,Scaletta Zanclea,Scalettta Zanclea,"0",NA,flood,2009-0428,"38.05382601","15.45536043"
"3480",Italy,ITA,"325","2009","10515",Taormina,"3",Sicily,Messina,Taormina,Taormina,"0",NA,flood,2009-0428,"37.84554421","15.26527952"
"3488",Italy,ITA,"325","2013","10363",Arzachena,"3",Sardegna,Olbia-Tempio,Arzachena,Arzachena,"0",NA,flood,2013-0441,"41.09138949","9.413225328"
"3488",Italy,ITA,"325","2013","10469",Olbia,"3",Sardegna,Olbia-Tempio,Olbia,Olbia,"0",NA,flood,2013-0441,"40.92528806","9.473691388"
"4366",Mozambique,MOZ,"541","2001","13682",Cidade Da Beira,"3",Sofala,Dondo,Cidade Da Beira,Beira,"0",NA,flood,2001-0019,"-19.71616933","34.93000086"
"4366",Mozambique,MOZ,"541","2001","13691",Cidade De Quelimane,"3",Zambezia,Nicoadala,Cidade De Quelimane,Qualimane city,"0",NA,flood,2001-0019,"-17.85806251","36.91355453"
"4369",Mozambique,MOZ,"541","2003","13692",Cidade De Quelimane,"3",Zambezia,Nicoadala,Cidade De Quelimane,Quelimane,"0",NA,flood,2003-0020,"-17.85806251","36.91355453"
"4376",Mozambique,MOZ,"541","2007","13693",Cidade De Quelimane,"3",Zambezia,Nicoadala,Cidade De Quelimane,Quelimane,"0",NA,flood,2007-0020,"-17.85806251","36.91355453"
"4458",Nepal,NPL,"790","2003","14212",Kailali,"3",Far-Western,Seti,Kailali,Kailali,"0",NA,flood,2003-0341,"28.74158889","80.88083089"
"4464",Nepal,NPL,"790","2008","14213",Kailali,"3",Far-Western,Seti,Kailali,Kailali,"0",NA,flood,2008-0431,"28.74158889","80.88083089"
"4466",Nepal,NPL,"790","2009","14214",Kailali,"3",Far-Western,Seti,Kailali,Kailali,"0",NA,flood,2009-0434,"28.74158889","80.88083089"
"4468",Nepal,NPL,"790","2010","14215",Kailali,"3",Far-Western,Seti,Kailali,Kailali,"0",NA,flood,2010-0452,"28.74158889","80.88083089"
"4472",Nepal,NPL,"790","2013","14216",Kailali,"3",Far-Western,Seti,Kailali,Kailali,"0",NA,flood,2013-0456,"28.74158889","80.88083089"
"4734",Pakistan,PAK,"770","2005","15056",Kashmore,"3",Sind,Larkana,Kashmore,Kashmore,"0",NA,flood,2005-0360,"28.26887647","69.31052708"
"4727",Pakistan,PAK,"770","2003","15267",Thatta,"3",Sind,Hyderabad,Thatta,Thatta,"0",NA,flood,2003-0359,"24.49305581","67.96954949"
"4731",Pakistan,PAK,"770","2005","15150",Gwadar,"3",Baluchistan,Makran,Gwadar,Pasni Tehsil,"0",NA,flood,2005-0079,"25.41654733","63.16460845"
01-1010,Nepal,NEP,"790","1983","28028",Dadeldhura,"3",Far-Western,Mahakali,Dadeldhura, Dandeldhura,"0",NA,flood,1983-0114,"29.22307816","80.49070521"
01-1010,Nepal,NEP,"790","1983","28029",Kanchanpur,"3",Far-Western,Mahakali,Kanchanpur, Kanchampur,"0",NA,flood,1983-0114,"28.86174333","80.32329285"
01-1010,Nepal,NEP,"790","1983","28030",Kailali,"3",Far-Western,Seti,Kailali, Kailali,"0",NA,flood,1983-0114,"28.74158889","80.88083089"
01-1010,Nepal,NEP,"790","1983","28031",Bajura,"3",Far-Western,Seti,Bajura, Bajura,"0",NA,flood,1983-0114,"29.56121934","81.56516037"
01-1010,Nepal,NEP,"790","1983","28032",Achham,"3",Far-Western,Seti,Achham, Accham,"0",NA,flood,1983-0114,"29.11251006","81.2988039"
01-1010,Nepal,NEP,"790","1983","28033",Darchula,"3",Far-Western,Mahakali,Darchula, Darchula districts,"0",NA,flood,1983-0114,"29.89195571","80.79365718"
01-1010,Nepal,NEP,"790","1983","28035",Doti,"3",Far-Western,Seti,Doti, Doti,"0",NA,flood,1983-0114,"29.16955481","80.89620195"
01-1010,Nepal,NEP,"790","1983","28036",Bajhang,"3",Far-Western,Seti,Bajhang, Bajhang,"0",NA,flood,1983-0114,"29.70815561","81.18046625"
01-1012,Nepal,NEP,"790","1985","28039",Achham,"3",Far-Western,Seti,Achham, Accham,"0",NA,flood,1985-0092,"29.11251006","81.2988039"
01-1012,Nepal,NEP,"790","1985","28040",Bajhang,"3",Far-Western,Seti,Bajhang, Bajhang districts,"0",NA,flood,1985-0092,"29.70815561","81.18046625"
01-1013,Nepal,NEP,"790","1986","28042",Siraha,"3",East,Sagarmatha,Siraha,Siraha,"0",NA,flood,1986-0212,"26.74612998","86.34480427"
01-1013,Nepal,NEP,"790","1986","28045",Saptari,"3",East,Sagarmatha,Saptari, Saptari,"0",NA,flood,1986-0212,"26.59782107","86.74858967"
01-1015,Nepal,NEP,"790","1987","28046",Morang,"3",East,Koshi,Morang, Morang,"0",NA,flood,1987-0320,"26.61715419","87.47269656"
01-1015,Nepal,NEP,"790","1987","28048",Sunsari,"3",East,Koshi,Sunsari, Sunsaro,"0",NA,flood,1987-0320,"26.65027024","87.17248561"
01-1015,Nepal,NEP,"790","1987","28049",Nuwakot,"3",Central,Bagmati,Nuwakot, Nuwakot,"0",NA,flood,1987-0320,"27.91486846","85.23769703"
01-1015,Nepal,NEP,"790","1987","28051",Sindhupalchok,"3",Central,Bagmati,Sindhupalchok,Sinhulpalhowk,"0",NA,flood,1987-0320,"27.91456052","85.74188468"
01-1015,Nepal,NEP,"790","1987","28052",Saptari,"3",East,Sagarmatha,Saptari, Saptari,"0",NA,flood,1987-0320,"26.59782107","86.74858967"
01-1015,Nepal,NEP,"790","1987","28053",Udayapur,"3",East,Sagarmatha,Udayapur, Udayapur,"0",NA,flood,1987-0320,"26.90272658","86.68372628"
01-1020,Nepal,NEP,"790","2000","28057",Banke,"3",Mid-Western,Bheri,Banke, Banke districts,"0",NA,flood,2000-0476,"28.08703209","81.82416506"
01-1020,Nepal,NEP,"790","2000","28058",Ilam,"3",East,Mechi,Ilam, Ilam,"0",NA,flood,2000-0476,"26.88080447","87.90411447"
01-1020,Nepal,NEP,"790","2000","28059",Dolakha,"3",Central,Janakpur,Dolakha, Dolakha,"0",NA,flood,2000-0476,"27.78540479","86.20100729"
01-1020,Nepal,NEP,"790","2000","28060",Darchula,"3",Far-Western,Mahakali,Darchula, Darchula,"0",NA,flood,2000-0476,"29.89195571","80.79365718"
01-1020,Nepal,NEP,"790","2000","28061",Bhojpur,"3",East,Koshi,Bhojpur, Bhojpur,"0",NA,flood,2000-0476,"27.18144993","87.07037234"
01-1020,Nepal,NEP,"790","2000","28062",Baitadi,"3",Far-Western,Mahakali,Baitadi, Baitadi,"0",NA,flood,2000-0476,"29.50750867","80.57319681"
01-1020,Nepal,NEP,"790","2000","28063",Morang,"3",East,Koshi,Morang, Morang,"0",NA,flood,2000-0476,"26.61715419","87.47269656"
01-1020,Nepal,NEP,"790","2000","28064",Siraha,"3",East,Sagarmatha,Siraha, Siraha,"0",NA,flood,2000-0476,"26.74612998","86.34480427"
01-1020,Nepal,NEP,"790","2000","28066",Gorkha,"3",West,Gandaki,Gorkha, Gorkha,"0",NA,flood,2000-0476,"28.31827359","84.79276781"
01-1020,Nepal,NEP,"790","2000","28067",Sunsari,"3",East,Koshi,Sunsari, Sunsari,"0",NA,flood,2000-0476,"26.65027024","87.17248561"
01-1020,Nepal,NEP,"790","2000","28069",Saptari,"3",East,Sagarmatha,Saptari, Saptari,"0",NA,flood,2000-0476,"26.59782107","86.74858967"
01-1020,Nepal,NEP,"790","2000","28070",Dailekh,"3",Mid-Western,Bheri,Dailekh, Dailekh,"0",NA,flood,2000-0476,"28.87957523","81.68151929"
01-1020,Nepal,NEP,"790","2000","28071",Terhathum,"3",East,Koshi,Terhathum, Tarahthum,"0",NA,flood,2000-0476,"27.15399365","87.55149208"
01-1020,Nepal,NEP,"790","2000","28072",Lalitpur,"3",Central,Bagmati,Lalitpur, Lalitpur,"0",NA,flood,2000-0476,"27.53815167","85.34482639"
01-1020,Nepal,NEP,"790","2000","28073",Sarlahi,"3",Central,Janakpur,Sarlahi, Sarlahi,"0",NA,flood,2000-0476,"26.98588028","85.56745865"
01-1020,Nepal,NEP,"790","2000","28074",Tanahu,"3",West,Gandaki,Tanahu, Tanahu,"0",NA,flood,2000-0476,"27.95515479","84.2533168"
01-1020,Nepal,NEP,"790","2000","28075",Jhapa,"3",East,Mechi,Jhapa, Jhapa,"0",NA,flood,2000-0476,"26.58417915","87.91581905"
01-1020,Nepal,NEP,"790","2000","28078",Parsa,"3",Central,Narayani,Parsa, Parsa,"0",NA,flood,2000-0476,"27.23949219","84.78236161"
01-1020,Nepal,NEP,"790","2000","28079",Kaski,"3",West,Gandaki,Kaski, Kaski,"0",NA,flood,2000-0476,"28.35477906","83.99943513"
01-1020,Nepal,NEP,"790","2000","28080",Taplejung,"3",East,Mechi,Taplejung, Taplejung,"0",NA,flood,2000-0476,"27.58177736","87.82439423"
01-1020,Nepal,NEP,"790","2000","28081",Rautahat,"3",Central,Narayani,Rautahat, Rautahat,"0",NA,flood,2000-0476,"27.00162322","85.30456971"
01-1020,Nepal,NEP,"790","2000","28082",Dhading,"3",Central,Bagmati,Dhading, Dhading,"0",NA,flood,2000-0476,"27.95042024","84.96011993"
01-1020,Nepal,NEP,"790","2000","28083",Makwanpur,"3",Central,Narayani,Makwanpur, Makawanpur,"0",NA,flood,2000-0476,"27.46937916","85.08232615"
01-1020,Nepal,NEP,"790","2000","28084",Lamjung,"3",West,Gandaki,Lamjung, Lamjung,"0",NA,flood,2000-0476,"28.28899006","84.43230048"
01-1020,Nepal,NEP,"790","2000","28085",Panchthar,"3",East,Mechi,Panchthar, Panchthar,"0",NA,flood,2000-0476,"27.11467173","87.77837726"
01-1021,Nepal,NEP,"790","2008","28088",Saptari,"3",East,Sagarmatha,Saptari,Kusaha,"0",NA,flood,2008-0271,"26.59782107","86.74858967"
01-1021,Nepal,NEP,"790","2008","28091",Kathmandu,"3",Central,Bagmati,Kathmandu, Madhuban,"0",NA,flood,2008-0271,"27.72793597","85.34962108"
01-1021,Nepal,NEP,"790","2008","28092",Bhaktapur,"3",Central,Bagmati,Bhaktapur,Narsingha,"0",NA,flood,2008-0271,"27.67735289","85.44290591"
01-1021,Nepal,NEP,"790","2008","28093",Siraha,"3",East,Sagarmatha,Siraha, Siraha districts ,"0",NA,flood,2008-0271,"26.74612998","86.34480427"
01-1082,Pakistan,PAK,"770","2012","28175",Kashmore,"3",Sind,Larkana,Kashmore, Kashmore,"0",NA,flood,2012-0363,"28.26887647","69.31052708"
01-1082,Pakistan,PAK,"770","2012","28176",Jafarabad,"3",Baluchistan,Nasirabad,Jafarabad, Jaffarabad,"0",NA,flood,2012-0363,"28.27551142","68.14901471"
01-1082,Pakistan,PAK,"770","2012","28177",Jhal Magsi,"3",Baluchistan,Nasirabad,Jhal Magsi, Jhal Magsi ,"0",NA,flood,2012-0363,"28.3866247","67.55317578"
01-1082,Pakistan,PAK,"770","2012","28187",Rajan Pur,"3",Punjab,Dera Ghazi Khan,Rajan Pur, Rajanpur ,"0",NA,flood,2012-0363,"29.13716591","70.16249331"
01-1082,Pakistan,PAK,"770","2012","28188",Jakobabad,"3",Sind,Larkana,Jakobabad, Jacobabad,"0",NA,flood,2012-0363,"28.2338154","68.59937842"
01-1121,Peru,PER,"135","1987","28279",Villa Rica,"3",Pasco,Oxapampa,Villa Rica,Villarica,"0",NA,flood,1987-0023,"-10.66378978","-75.21330616"
01-1124,Peru,PER,"135","2006","28294",Papayal,"3",Tumbes,Zarumilla,Papayal, Papayal,"0",NA,flood,2006-0147,"-3.569580695","-80.28694954"
01-1124,Peru,PER,"135","2006","28295",Aguas Verdes,"3",Tumbes,Zarumilla,Aguas Verdes, Aguas Verdes,"0",NA,flood,2006-0147,"-3.491378752","-80.24254926"
01-1124,Peru,PER,"135","2006","28298",Casitas,"3",Tumbes,Contralmirante Villar,Casitas, Casitas,"0",NA,flood,2006-0147,"-4.041721649","-80.67365622"
01-1124,Peru,PER,"135","2006","28300",Zorritos,"3",Tumbes,Contralmirante Villar,Zorritos,Zorritos,"0",NA,flood,2006-0147,"-3.915413233","-80.79199399"
01-1127,Peru,PER,"135","2011","28347",Iquitos,"3",Loreto,Maynas,Iquitos, Iquitos,"0",NA,flood,2011-0660,"-4.056390548","-73.55054451"
01-1127,Peru,PER,"135","2011","28352",Punchana,"3",Loreto,Maynas,Punchana, Punchana,"0",NA,flood,2011-0660,"-3.544621141","-73.45600779"
01-1127,Peru,PER,"135","2011","28356",Urarinas,"3",Loreto,Loreto,Urarinas, Urarinas,"0",NA,flood,2011-0660,"-4.310883565","-75.4805887"
01-1127,Peru,PER,"135","2011","28363",Nauta,"3",Loreto,Loreto,Nauta, Nauta,"0",NA,flood,2011-0660,"-4.451629107","-74.11250616"
01-1127,Peru,PER,"135","2011","28365",Parinari,"3",Loreto,Loreto,Parinari, Parinari,"0",NA,flood,2011-0660,"-5.033200283","-74.84060587"
01-1163,Philippines,PHI,"840","2009","28451",Tipanoy,"3",Lanao Del Norte,Iligan City,Tipanoy, Tipanoy,"0",NA,flood,2009-0194,"8.194104032","124.2728454"
01-1163,Philippines,PHI,"840","2009","28453",Ubaldo Laya,"3",Lanao Del Norte,Iligan City,Ubaldo Laya, Ubaldo Laya,"0",NA,flood,2009-0194,"8.20954309","124.2589523"
01-1328,Timor-Leste,ETM,"860","2003","28690",Meligo,"3",Bobonaro,Cailaco,Meligo,Meligo,"0",NA,flood,2003-0647,"-8.904939552","125.2347919"
01-1328,Timor-Leste,ETM,"860","2003","28691",Atudara,"3",Bobonaro,Cailaco,Atudara, Atudara,"0",NA,flood,2003-0647,"-8.904665108","125.2612838"
01-1365,United Kingdom,UKG,"200","2014","28760",South Somerset,"3",England,Somerset,South Somerset,Muchelney ,"0",NA,flood,2014-0039,"50.9892652","-2.698742776"
01-168,Bangladesh,BNG,"771","2000","29019",Gangni,"3",Khulna,Meherpur,Gangni,Gangni,"0",NA,flood,2000-0617,"23.85761646","88.77130382"
01-168,Bangladesh,BNG,"771","2000","29020",Bheramara,"3",Khulna,Kushtia,Bheramara, Bheramara ,"0",NA,flood,2000-0617,"24.05688736","88.98163747"
01-168,Bangladesh,BNG,"771","2000","29021",Maheshpur,"3",Khulna,Jhenaidah,Maheshpur, Maheshpur,"0",NA,flood,2000-0617,"23.31975191","88.85846791"
01-168,Bangladesh,BNG,"771","2000","29024",Mohanpur,"3",Rajshahi,Rajshahi,Mohanpur, Mohanpur ,"0",NA,flood,2000-0617,"24.55361151","88.6403351"
01-168,Bangladesh,BNG,"771","2000","29026",Paba,"3",Rajshahi,Rajshahi,Paba, Paba,"0",NA,flood,2000-0617,"24.40608511","88.59976472"
01-168,Bangladesh,BNG,"771","2000","29027",Kotchandpur,"3",Khulna,Jhenaidah,Kotchandpur, Kotchandpur ,"0",NA,flood,2000-0617,"23.44790776","88.99867733"
01-168,Bangladesh,BNG,"771","2000","29028",Alamdanga,"3",Khulna,Chuadanga,Alamdanga, Alamdanga,"0",NA,flood,2000-0617,"23.72943182","88.90816711"
01-168,Bangladesh,BNG,"771","2000","29031",Meherpur Sadar,"3",Khulna,Meherpur,Meherpur Sadar, Meherpur Sadar ,"0",NA,flood,2000-0617,"23.76549301","88.66154824"
01-168,Bangladesh,BNG,"771","2000","29032",Kushtia Sadar,"3",Khulna,Kushtia,Kushtia Sadar, Kushtia Sadar,"0",NA,flood,2000-0617,"23.82225798","89.08962994"
01-168,Bangladesh,BNG,"771","2000","29033",Damurhuda,"3",Khulna,Chuadanga,Damurhuda, Damurhuda ,"0",NA,flood,2000-0617,"23.59342528","88.74058327"
01-168,Bangladesh,BNG,"771","2000","29034",Godagari,"3",Rajshahi,Rajshahi,Godagari, Godagari,"0",NA,flood,2000-0617,"24.48364687","88.41487321"
30-Jan,American Samoa,NA,"999","2003","29348",Fagatogo,"3",Eastern,Ma'Oputasi,Fagatogo, Fagatogo,"0",NA,flood,2003-0287,"-14.28329425","-170.6925123"
30-Jan,American Samoa,NA,"999","2003","29349",Pago Pago,"3",Eastern,Ma'Oputasi,Pago Pago,Pago pago,"0",NA,flood,2003-0287,"-14.27326444","-170.7033006"
01-358,China,CHN,"710","2000","29448",Longhai,"3",Fujian,Zhangzhou,Longhai,Longhai County,"0",NA,flood,2000-0372,"24.40279889","117.7898384"
01-465,Ethiopia,ETH,"530","1976","29697",Gode,"3",Somali,Shabelle,Gode,Gode,"0",NA,flood,1976-0032,"6.108091249","43.53281102"
01-465,Ethiopia,ETH,"530","1976","29698",Kelafo,"3",Somali,Shabelle,Kelafo, Kelafo,"0",NA,flood,1976-0032,"5.736100998","44.177237"
01-465,Ethiopia,ETH,"530","1976","29699",Mustahil,"3",Somali,Shabelle,Mustahil, Mustahil,"0",NA,flood,1976-0032,"5.449907035","44.7624857"
01-519,Greece,GRC,"350","2001","29764",Lavreotiki,"3",Attica,Attica,Lavreotiki, Cape Sounion,"0",NA,flood,2001-0031,"37.74182211","24.01426872"
01-519,Greece,GRC,"350","2001","29765",Athens,"3",Attica,Attica,Athens,Athens,"0",NA,flood,2001-0031,"37.98627768","23.73434117"
01-550,Guinea,GUI,"438","2011","29786",Kinieran,"3",Kankan,Mandiana,Kinieran,Kinran,"0",NA,flood,2011-0463,"11.12289078","-8.844617327"
01-550,Guinea,GUI,"438","2011","29787",Kiniebakoura,"3",Kankan,Siguiri,Kiniebakoura, Kinibakoura,"0",NA,flood,2011-0463,"11.25736555","-9.205497459"
01-550,Guinea,GUI,"438","2011","29793",Niandankoro,"3",Kankan,Siguiri,Niandankoro, Niandankoro,"0",NA,flood,2011-0463,"11.18485645","-9.347997238"
01-550,Guinea,GUI,"438","2011","29794",Matoto,"3",Conakry,Conakry,Matoto, Matoto ,"0",NA,flood,2011-0463,"9.592533353","-13.53942448"
01-550,Guinea,GUI,"438","2011","29795",Matam,"3",Conakry,Conakry,Matam, Matam ,"0",NA,flood,2011-0463,"9.581564298","-13.62932829"
01-560,Haiti,HAI,"41","2000","29809",Limonade,"3",Nord,Le Cap-Haitien,Limonade, Limonade,"0",NA,flood,2000-0722,"19.66973201","-72.10878665"
01-995,Mozambique,MZM,"541","2013","30540",Cidade De Quelimane,"3",Zambezia,Nicoadala,Cidade De Quelimane, Cidade de Quelimane,"0",NA,flood,2013-0011,"-17.85806251","36.91355453"
11-Feb,Albania,ALB,"339","2016","30641",Permet,"3",Gjirokaster,Permetit,Permet,Permet province,"0",NA,flood,2016-0420,"40.23452944","20.3353701"
11-Feb,Albania,ALB,"339","2016","30643",Kelcyre,"3",Gjirokaster,Permetit,Kelcyre, Kelcyre district ,"0",NA,flood,2016-0420,"40.27551711","20.16411792"
12-Feb,Albania,ALB,"339","2017","30709",Cakran,"3",Fier,Fierit,Cakran, Kashisht ,"0",NA,flood,2017-0504,"40.60738922","19.59548129"
12-Feb,Albania,ALB,"339","2017","30710",Frakull,"3",Fier,Fierit,Frakull, Ferras ,"0",NA,flood,2017-0504,"40.63986552","19.50804983"
12-Feb,Albania,ALB,"339","2017","30714",Kashar,"3",Tirane,Tiranes,Kashar, Kashar,"0",NA,flood,2017-0504,"41.34010177","19.71952129"
12-Feb,Albania,ALB,"339","2017","30718",Roskovec,"3",Fier,Fierit,Roskovec, Roskovec,"0",NA,flood,2017-0504,"40.75977987","19.68356093"
12-Feb,Albania,ALB,"339","2017","30719",Vore,"3",Tirane,Tiranes,Vore, Ure Vajgurore,"0",NA,flood,2017-0504,"41.38517996","19.64963141"
12-Feb,Albania,ALB,"339","2017","30720",Fushe Kruje,"3",Durres,Krujes,Fushe Kruje,Fush- Kruj,"0",NA,flood,2017-0504,"41.47331194","19.73120214"
12-Feb,Albania,ALB,"339","2017","30721",Bubq,"3",Durres,Krujes,Bubq,Bubq,"0",NA,flood,2017-0504,"41.47945161","19.65060771"
12-Feb,Albania,ALB,"339","2017","30722",Kamez,"3",Tirane,Tiranes,Kamez, Laknas ,"0",NA,flood,2017-0504,"41.37958475","19.75731638"
02-134,China,CHN,"710","2017","30814",Kai,"3",Chongqing,Chongqing,Kai,Kaizhou,"0",NA,flood,2017-0398,"31.27688221","108.3798416"
02-134,China,CHN,"710","2017","30817",Yunyang,"3",Chongqing,Chongqing,Yunyang, Yunyang,"0",NA,flood,2017-0398,"31.04052604","108.8512045"
02-171,Cote D'Ivoire,IVO,"437","2016","31029",Danane,"3",Montagnes,Tonkpi,Danane,Danan region ,"0",NA,flood,2016-0352,"7.365395644","-8.128595206"
02-190,Ethiopia,ETI,"530","2016","31161",Jijiga,"3",Somali,Fafan,Jijiga,Jijiga city ,"0",NA,flood,2016-0101,"9.368249849","42.89139423"
02-205,Germany,GMY,"260","2016","31227",Simbach A. Inn,"3",Bayern,Rottal-Inn,Simbach A. Inn,Simbach am Inn,"0",NA,flood,2016-0179,"48.28934782","13.01570566"
02-205,Germany,GMY,"260","2016","31230",Triftern,"3",Bayern,Rottal-Inn,Triftern, Triften,"0",NA,flood,2016-0179,"48.38892666","13.00446739"
02-205,Germany,GMY,"260","2016","31231",Tann,"3",Bayern,Rottal-Inn,Tann, Tann,"0",NA,flood,2016-0179,"48.32943009","12.91140597"
02-207,Germany,GMY,"260","2017","31238",Bad Harzburg,"3",Niedersachsen,Goslar,Bad Harzburg, Bad Harzburg,"0",NA,flood,2017-0310,"51.89038449","10.56795941"
02-215,Greece,GRC,"350","2017","31267",Megara,"3",Attica,Attica,Megara, Megara ,"0",NA,flood,2017-0444,"38.02537663","23.27232799"
02-215,Greece,GRC,"350","2017","31269",Igoumenitsa,"3",Epirus And Western Macedonia,Epirus,Igoumenitsa, Igoumenitsa ,"0",NA,flood,2017-0444,"39.42973141","20.34590645"
02-215,Greece,GRC,"350","2017","31270",Ioannina,"3",Epirus And Western Macedonia,Epirus,Ioannina,Ioanninon,"0",NA,flood,2017-0444,"39.64073796","20.88356567"
02-215,Greece,GRC,"350","2017","31271",Athens,"3",Attica,Attica,Athens, Nea Peramos,"0",NA,flood,2017-0444,"37.98627768","23.73434117"
02-231,Haiti,HAI,"41","2016","31360",Cap-Haitien,"3",Nord,Le Cap-Haitien,Cap-Haitien,Cap-Haitien,"0",NA,flood,2016-0053,"19.74954003","-72.21872986"
02-231,Haiti,HAI,"41","2016","31361",Limonade,"3",Nord,Le Cap-Haitien,Limonade, Limonade cities ,"0",NA,flood,2016-0053,"19.66973201","-72.10878665"
02-233,Haiti,HAI,"41","2016","31369",Bombardopolis,"3",Nord-Ouest,Mole Saint-Nicolas,Bombardopolis,Bombardopolis city ,"0",NA,flood,2016-0165,"19.69085168","-73.34761719"
02-234,Haiti,HAI,"41","2016","31370",Carrefour,"3",Ouest,Port-au-Prince,Carrefour, Carrefour municipalities ,"0",NA,flood,2016-0185,"18.466092","-72.41125234"
02-237,Haiti,HAI,"41","2017","31390",Torbeck,"3",Sud,Les Cayes,Torbeck, Torbeck ,"0",NA,flood,2017-0452,"18.24516593","-73.88311514"
02-237,Haiti,HAI,"41","2017","31392",Maniche,"3",Sud,Les Cayes,Maniche, Maniche,"0",NA,flood,2017-0452,"18.33450796","-73.74104488"
02-266,India,IND,"750","2016","31614",Bhiwandi,"3",Maharashtra,Thane,Bhiwandi,Bhiwandi,"0",NA,flood,2016-0304,"19.37046368","73.10086628"
02-304,Indonesia,INS,"850","2016","31838",Bungah,"3",Jawa Timur,Gresik,Bungah, Bungah and Tuban ,"0",NA,flood,2016-0525,"-7.025500568","112.5895231"
02-304,Indonesia,INS,"850","2016","31839",Rengel,"3",Jawa Timur,Tuban,Rengel, Rengel,"0",NA,flood,2016-0525,"-7.070204374","112.0093211"
02-304,Indonesia,INS,"850","2016","31842",Soko,"3",Jawa Timur,Tuban,Soko, Soko,"0",NA,flood,2016-0525,"-7.095328076","111.9369474"
02-304,Indonesia,INS,"850","2016","31843",Plumpang,"3",Jawa Timur,Tuban,Plumpang, Plumpang,"0",NA,flood,2016-0525,"-7.042079305","112.108631"
02-304,Indonesia,INS,"850","2016","31844",Parengan,"3",Jawa Timur,Tuban,Parengan, Parengan,"0",NA,flood,2016-0525,"-7.062057709","111.8530456"
02-304,Indonesia,INS,"850","2016","31846",Widang,"3",Jawa Timur,Tuban,Widang,Widang,"0",NA,flood,2016-0525,"-7.03284894","112.1747993"
02-305,Indonesia,INS,"850","2016","31851",Mpunda,"3",Nusa Tenggara Barat,Kota Bima,Mpunda, Mpuda,"0",NA,flood,2016-0527,"-8.472500229","118.7399961"
02-305,Indonesia,INS,"850","2016","31853",Asakota,"3",Nusa Tenggara Barat,Kota Bima,Asakota,  Asakota districts ,"0",NA,flood,2016-0527,"-8.412206375","118.7437529"
02-305,Indonesia,INS,"850","2016","31854",Rasanae Barat,"3",Nusa Tenggara Barat,Kota Bima,Rasanae Barat, Rasanae West,"0",NA,flood,2016-0527,"-8.467896714","118.7210353"
02-305,Indonesia,INS,"850","2016","31855",Raba,"3",Nusa Tenggara Barat,Kota Bima,Raba,  Raba,"0",NA,flood,2016-0527,"-8.457480402","118.8034971"
02-305,Indonesia,INS,"850","2016","31857",Rasanae Timur,"3",Nusa Tenggara Barat,Kota Bima,Rasanae Timur, East Rasanae,"0",NA,flood,2016-0527,"-8.488588044","118.8221564"
02-310,Indonesia,INS,"850","2016","31903",Dayeuhkolot,"3",Jawa Barat,Bandung,Dayeuhkolot, Dayeuhkolot,"0",NA,flood,2016-0094,"-6.97275442","107.6131134"
02-310,Indonesia,INS,"850","2016","31904",Katapang,"3",Jawa Barat,Bandung,Katapang, Katapang and Kutawaringin districts areas ,"0",NA,flood,2016-0094,"-7.003817993","107.5603801"
02-310,Indonesia,INS,"850","2016","31905",Cangkuang,"3",Jawa Barat,Bandung,Cangkuang, Cangkuang,"0",NA,flood,2016-0094,"-7.057533619","107.5419245"
02-310,Indonesia,INS,"850","2016","31906",Baleendah,"3",Jawa Barat,Bandung,Baleendah, Baleendah,"0",NA,flood,2016-0094,"-7.012314834","107.6387966"
02-310,Indonesia,INS,"850","2016","31908",Rancaekek,"3",Jawa Barat,Bandung,Rancaekek, Rancaekek,"0",NA,flood,2016-0094,"-6.980120071","107.7669379"
02-310,Indonesia,INS,"850","2016","31909",Kutawaringin,"3",Jawa Barat,Bandung,Kutawaringin, Katapang and Kutawaringin districts areas ,"0",NA,flood,2016-0094,"-6.999693251","107.5098188"
02-310,Indonesia,INS,"850","2016","31910",Bojongsoang,"3",Jawa Barat,Bandung,Bojongsoang, Bojongsoang,"0",NA,flood,2016-0094,"-6.983735416","107.6645906"
02-310,Indonesia,INS,"850","2016","31911",Ciparay,"3",Jawa Barat,Bandung,Ciparay, Ciparay,"0",NA,flood,2016-0094,"-7.045415197","107.6981087"
02-310,Indonesia,INS,"850","2016","31912",Cicalengka,"3",Jawa Barat,Bandung,Cicalengka,Cicalengka,"0",NA,flood,2016-0094,"-6.986612501","107.8608239"
02-310,Indonesia,INS,"850","2016","31913",Solokan Jeruk,"3",Jawa Barat,Bandung,Solokan Jeruk, Solokan Jeruk,"0",NA,flood,2016-0094,"-7.010852469","107.7489085"
02-310,Indonesia,INS,"850","2016","31914",Arjasari,"3",Jawa Barat,Bandung,Arjasari, Arjasri,"0",NA,flood,2016-0094,"-7.067244098","107.6411289"
02-310,Indonesia,INS,"850","2016","31915",Cileunyi,"3",Jawa Barat,Bandung,Cileunyi, Cileunyi,"0",NA,flood,2016-0094,"-6.932819395","107.7390656"
02-311,Indonesia,INS,"850","2016","31918",Lasolo,"3",Sulawesi Tenggara,Konawe Utara,Lasolo, Lasolo sub-districts ,"0",NA,flood,2016-0306,"-3.575689157","122.2389644"
02-311,Indonesia,INS,"850","2016","31921",Asera,"3",Sulawesi Tenggara,Konawe Utara,Asera, Asera,"0",NA,flood,2016-0306,"-3.397827505","121.8376613"
02-314,Indonesia,INS,"850","2017","31927",Keruak,"3",Nusa Tenggara Barat,Lombok Timur,Keruak, Keruak,"0",NA,flood,2017-0576,"-8.759548402","116.483711"
02-314,Indonesia,INS,"850","2017","31930",Sakra,"3",Nusa Tenggara Barat,Lombok Timur,Sakra, Sakra and West Sakra districts,"0",NA,flood,2017-0576,"-8.680042128","116.4748147"
02-314,Indonesia,INS,"850","2017","31931",Jerowaru,"3",Nusa Tenggara Barat,Lombok Timur,Jerowaru, Jerowaru,"0",NA,flood,2017-0576,"-8.845354653","116.4802252"
02-314,Indonesia,INS,"850","2017","31932",Sakra Barat,"3",Nusa Tenggara Barat,Lombok Timur,Sakra Barat, Sakra and West Sakra districts,"0",NA,flood,2017-0576,"-8.722919267","116.4738778"
02-319,Indonesia,INS,"850","2017","31951",Lareh Sago Halaban,"3",Sumatera Barat,Lima Puluh Kota,Lareh Sago Halaban, Lareh Sago Halaban,"0",NA,flood,2017-0111,"-0.294298524","100.7616014"
02-319,Indonesia,INS,"850","2017","31952",Harau,"3",Sumatera Barat,Lima Puluh Kota,Harau, Harau districts,"0",NA,flood,2017-0111,"-0.119676134","100.6955827"
02-319,Indonesia,INS,"850","2017","31953",Kapur Ix,"3",Sumatera Barat,Lima Puluh Kota,Kapur Ix, Kapur IX,"0",NA,flood,2017-0111,"0.232408573","100.443772"
02-322,Indonesia,INS,"850","2017","31976",Dako Pamean,"3",Sulawesi Tengah,Toli-Toli,Dako Pamean, Dako Pamean sub-districts ,"0",NA,flood,2017-0177,"1.244173687","120.8953479"
02-322,Indonesia,INS,"850","2017","31980",Limboto Barat,"3",Gorontalo,Gorontalo,Limboto Barat, West Limboto,"0",NA,flood,2017-0177,"0.659100709","122.9269696"
02-322,Indonesia,INS,"850","2017","31984",Lampasio,"3",Sulawesi Tengah,Toli-Toli,Lampasio, Lampasio,"0",NA,flood,2017-0177,"0.890137836","120.8824948"
02-322,Indonesia,INS,"850","2017","31985",Limboto,"3",Gorontalo,Gorontalo,Limboto, districts of Limboto,"0",NA,flood,2017-0177,"0.680161525","122.9882559"
02-322,Indonesia,INS,"850","2017","31986",Tibawa,"3",Gorontalo,Gorontalo,Tibawa, and Tibawa ,"0",NA,flood,2017-0177,"0.69364559","122.8520009"
02-322,Indonesia,INS,"850","2017","31988",Baolan,"3",Sulawesi Tengah,Toli-Toli,Baolan, Baolan,"0",NA,flood,2017-0177,"1.014647879","120.8836048"
02-349,Italy,ITA,"325","2017","32105",Brescello,"3",Emilia-Romagna,Reggio Nell'Emilia,Brescello, Brescello,"0",NA,flood,2017-0544,"44.88460356","10.49156837"
02-349,Italy,ITA,"325","2017","32107",Colorno,"3",Emilia-Romagna,Parma,Colorno, Colorno,"0",NA,flood,2017-0544,"44.94168605","10.38189056"
02-349,Italy,ITA,"325","2017","32112",Boretto,"3",Emilia-Romagna,Reggio Nell'Emilia,Boretto,between Sorbolo and Boretto ,"0",NA,flood,2017-0544,"44.89584404","10.56236198"
02-420,Mali,MLI,"432","2018","32503",Adjelhoc,"3",Kidal,Tessalit,Adjelhoc, Aguelhok,"0",NA,flood,2018-0441,"19.10080506","0.740777521"
Feb-44,Bangladesh,BNG,"771","2017","32611",Itna,"3",Dhaka,Kishoreganj,Itna, Itna ,"0",NA,flood,2017-0138,"24.54925636","91.08249281"
Feb-44,Bangladesh,BNG,"771","2017","32612",Karimganj,"3",Dhaka,Kishoreganj,Karimganj, Karimganj ,"0",NA,flood,2017-0138,"24.45128154","90.89599012"
Feb-44,Bangladesh,BNG,"771","2017","32616",Austagram,"3",Dhaka,Kishoreganj,Austagram, Austagram ,"0",NA,flood,2017-0138,"24.3230131","91.1216133"
02-453,Myanmar,MYA,"775","2017","32705",Ingapu,"3",Ayeyarwady,Hinthada,Ingapu, Ingapu Townships,"0",NA,flood,2017-0311,"17.85918901","95.14600409"
02-453,Myanmar,MYA,"775","2017","32710",Myanaung,"3",Ayeyarwady,Hinthada,Myanaung, Myanaung,"0",NA,flood,2017-0311,"18.10967526","95.17182271"
02-457,Nepal,NEP,"790","2016","32728",Lamjung,"3",West,Gandaki,Lamjung, Lamjung ,"0",NA,flood,2016-0275,"28.28899006","84.43230048"
02-457,Nepal,NEP,"790","2016","32729",Kavrepalanchok,"3",Central,Bagmati,Kavrepalanchok, Kavre,"0",NA,flood,2016-0275,"27.53581716","85.62193681"
02-457,Nepal,NEP,"790","2016","32731",Gorkha,"3",West,Gandaki,Gorkha, Gorkha,"0",NA,flood,2016-0275,"28.31827359","84.79276781"
02-457,Nepal,NEP,"790","2016","32734",Nuwakot,"3",Central,Bagmati,Nuwakot, Nuwakot,"0",NA,flood,2016-0275,"27.91486846","85.23769703"
02-457,Nepal,NEP,"790","2016","32735",Rasuwa,"3",Central,Bagmati,Rasuwa, Rasuwa ,"0",NA,flood,2016-0275,"28.18474104","85.4146996"
02-457,Nepal,NEP,"790","2016","32738",Dhading,"3",Central,Bagmati,Dhading, Dhading,"0",NA,flood,2016-0275,"27.95042024","84.96011993"
02-457,Nepal,NEP,"790","2016","32739",Dolakha,"3",Central,Janakpur,Dolakha, Dolakha ,"0",NA,flood,2016-0275,"27.78540479","86.20100729"
02-458,Nepal,NEP,"790","2016","32741",Jhapa,"3",East,Mechi,Jhapa, Jhapa ,"0",NA,flood,2016-0267,"26.58417915","87.91581905"
02-458,Nepal,NEP,"790","2016","32742",Gulmi,"3",West,Lumbini,Gulmi, Gulmi,"0",NA,flood,2016-0267,"28.09370762","83.30902607"
02-458,Nepal,NEP,"790","2016","32743",Udayapur,"3",East,Sagarmatha,Udayapur, Udaypur ,"0",NA,flood,2016-0267,"26.90272658","86.68372628"
02-458,Nepal,NEP,"790","2016","32745",Pyuthan,"3",Mid-Western,Rapti,Pyuthan,Pyuthan ,"0",NA,flood,2016-0267,"28.11527544","82.86693775"
02-458,Nepal,NEP,"790","2016","32746",Baglung,"3",West,Dhaualagiri,Baglung, Baglung,"0",NA,flood,2016-0267,"28.34731321","83.25244363"
02-458,Nepal,NEP,"790","2016","32748",Rupandehi,"3",West,Lumbini,Rupandehi, Rupandehi ,"0",NA,flood,2016-0267,"27.57649733","83.39154757"
02-458,Nepal,NEP,"790","2016","32749",Banke,"3",Mid-Western,Bheri,Banke, Banke ,"0",NA,flood,2016-0267,"28.08703209","81.82416506"
02-458,Nepal,NEP,"790","2016","32756",Palpa,"3",West,Lumbini,Palpa, Palpa,"0",NA,flood,2016-0267,"27.8171222","83.62568183"
02-459,Nepal,NEP,"790","2017","32758",Mugu,"3",Mid-Western,Karnali,Mugu, Mugu ,"0",NA,flood,2017-0321,"29.61795986","82.37243247"
02-459,Nepal,NEP,"790","2017","32759",Syangja,"3",West,Gandaki,Syangja, Syangja ,"0",NA,flood,2017-0321,"28.02091378","83.80527125"
02-459,Nepal,NEP,"790","2017","32764",Parbat,"3",West,Dhaualagiri,Parbat, Parbat district ,"0",NA,flood,2017-0321,"28.21101912","83.68089255"
02-459,Nepal,NEP,"790","2017","32765",Pyuthan,"3",Mid-Western,Rapti,Pyuthan, Pyuthan district ,"0",NA,flood,2017-0321,"28.11527544","82.86693775"
02-459,Nepal,NEP,"790","2017","32767",Kaski,"3",West,Gandaki,Kaski,Kaski,"0",NA,flood,2017-0321,"28.35477906","83.99943513"
02-459,Nepal,NEP,"790","2017","32769",Terhathum,"3",East,Koshi,Terhathum,Terhathum district ,"0",NA,flood,2017-0321,"27.15399365","87.55149208"
02-459,Nepal,NEP,"790","2017","32771",Saptari,"3",East,Sagarmatha,Saptari, Tilathi ,"0",NA,flood,2017-0321,"26.59782107","86.74858967"
02-460,Nepal,NEP,"790","2017","32786",Jhapa,"3",East,Mechi,Jhapa, Jhapa,"0",NA,flood,2017-0342,"26.58417915","87.91581905"
02-460,Nepal,NEP,"790","2017","32787",Rasuwa,"3",Central,Bagmati,Rasuwa, Rasuwa,"0",NA,flood,2017-0342,"28.18474104","85.4146996"
02-460,Nepal,NEP,"790","2017","32788",Dhading,"3",Central,Bagmati,Dhading, Dhading,"0",NA,flood,2017-0342,"27.95042024","84.96011993"
02-460,Nepal,NEP,"790","2017","32789",Parbat,"3",West,Dhaualagiri,Parbat, Parbat,"0",NA,flood,2017-0342,"28.21101912","83.68089255"
02-460,Nepal,NEP,"790","2017","32790",Dang,"3",Mid-Western,Rapti,Dang, Dang,"0",NA,flood,2017-0342,"27.96398038","82.41223144"
02-460,Nepal,NEP,"790","2017","32792",Nawalparasi,"3",West,Lumbini,Nawalparasi, Nawalparasi,"0",NA,flood,2017-0342,"27.63357535","83.95531189"
02-460,Nepal,NEP,"790","2017","32793",Terhathum,"3",East,Koshi,Terhathum, Terathum,"0",NA,flood,2017-0342,"27.15399365","87.55149208"
02-460,Nepal,NEP,"790","2017","32794",Sarlahi,"3",Central,Janakpur,Sarlahi, Sarlai,"0",NA,flood,2017-0342,"26.98588028","85.56745865"
02-460,Nepal,NEP,"790","2017","32795",Dolakha,"3",Central,Janakpur,Dolakha, Dolakha districts,"0",NA,flood,2017-0342,"27.78540479","86.20100729"
02-460,Nepal,NEP,"790","2017","32796",Siraha,"3",East,Sagarmatha,Siraha, Sirha,"0",NA,flood,2017-0342,"26.74612998","86.34480427"
02-460,Nepal,NEP,"790","2017","32797",Baglung,"3",West,Dhaualagiri,Baglung, Baglung,"0",NA,flood,2017-0342,"28.34731321","83.25244363"
02-460,Nepal,NEP,"790","2017","32798",Sunsari,"3",East,Koshi,Sunsari, Sunsari,"0",NA,flood,2017-0342,"26.65027024","87.17248561"
02-460,Nepal,NEP,"790","2017","32799",Morang,"3",East,Koshi,Morang, Morang,"0",NA,flood,2017-0342,"26.61715419","87.47269656"
02-460,Nepal,NEP,"790","2017","32800",Syangja,"3",West,Gandaki,Syangja, Syangia,"0",NA,flood,2017-0342,"28.02091378","83.80527125"
02-460,Nepal,NEP,"790","2017","32801",Panchthar,"3",East,Mechi,Panchthar, Panchhthar,"0",NA,flood,2017-0342,"27.11467173","87.77837726"
02-460,Nepal,NEP,"790","2017","32802",Kailali,"3",Far-Western,Seti,Kailali, Kailali,"0",NA,flood,2017-0342,"28.74158889","80.88083089"
02-460,Nepal,NEP,"790","2017","32803",Bardiya,"3",Mid-Western,Bheri,Bardiya, Bardia,"0",NA,flood,2017-0342,"28.38359104","81.40323195"
02-460,Nepal,NEP,"790","2017","32804",Palpa,"3",West,Lumbini,Palpa, Palpa,"0",NA,flood,2017-0342,"27.8171222","83.62568183"
02-460,Nepal,NEP,"790","2017","32805",Sindhuli,"3",Central,Janakpur,Sindhuli, Sindhuli,"0",NA,flood,2017-0342,"27.20110756","85.94659879"
02-460,Nepal,NEP,"790","2017","32806",Kaski,"3",West,Gandaki,Kaski, Kaski,"0",NA,flood,2017-0342,"28.35477906","83.99943513"
02-460,Nepal,NEP,"790","2017","32807",Pyuthan,"3",Mid-Western,Rapti,Pyuthan, Pyuthan,"0",NA,flood,2017-0342,"28.11527544","82.86693775"
02-460,Nepal,NEP,"790","2017","32808",Ramechhap,"3",Central,Janakpur,Ramechhap, Ramechhap,"0",NA,flood,2017-0342,"27.51332749","86.1796967"
02-460,Nepal,NEP,"790","2017","32809",Banke,"3",Mid-Western,Bheri,Banke,Banke,"0",NA,flood,2017-0342,"28.08703209","81.82416506"
02-460,Nepal,NEP,"790","2017","32810",Doti,"3",Far-Western,Seti,Doti, Doti,"0",NA,flood,2017-0342,"29.16955481","80.89620195"
02-460,Nepal,NEP,"790","2017","32811",Saptari,"3",East,Sagarmatha,Saptari, Saptari,"0",NA,flood,2017-0342,"26.59782107","86.74858967"
02-460,Nepal,NEP,"790","2017","32812",Rupandehi,"3",West,Lumbini,Rupandehi, Rupendehi,"0",NA,flood,2017-0342,"27.57649733","83.39154757"
02-460,Nepal,NEP,"790","2017","32813",Lalitpur,"3",Central,Bagmati,Lalitpur,Lalitpur,"0",NA,flood,2017-0342,"27.53815167","85.34482639"
02-461,Nepal,NEP,"790","2018","32814",Sarlahi,"3",Central,Janakpur,Sarlahi, Sarlahi,"0",NA,flood,2018-0219,"26.98588028","85.56745865"
02-461,Nepal,NEP,"790","2018","32819",Rolpa,"3",Mid-Western,Rapti,Rolpa,Rolpa district,"0",NA,flood,2018-0219,"28.34399386","82.62999127"
02-461,Nepal,NEP,"790","2018","32821",Dang,"3",Mid-Western,Rapti,Dang, Dang,"0",NA,flood,2018-0219,"27.96398038","82.41223144"
02-461,Nepal,NEP,"790","2018","32822",Sindhuli,"3",Central,Janakpur,Sindhuli, Sindhuli districts,"0",NA,flood,2018-0219,"27.20110756","85.94659879"
02-473,Niger,NIR,"436","2016","32925",ZR Tchirozerine,"3",Agadez,Tchighozerine,ZR Tchirozerine, Ingal city ,"0",NA,flood,2016-0219,"17.23407475","7.692169699"
02-496,Pakistan,PAK,"770","2016","33050",Tando Allahyar,"3",Sind,Hyderabad,Tando Allahyar, Tando Allahyar,"0",NA,flood,2016-0554,"24.98357477","68.46991841"
02-497,Pakistan,PAK,"770","2017","33057",Pishin,"3",Baluchistan,Quetta,Pishin, Pishin,"0",NA,flood,2017-0045,"30.65624529","67.08363095"
02-497,Pakistan,PAK,"770","2017","33058",Gwadar,"3",Baluchistan,Makran,Gwadar, Gwadar,"0",NA,flood,2017-0045,"25.41654733","63.16460845"
02-497,Pakistan,PAK,"770","2017","33059",Panjgur,"3",Baluchistan,Makran,Panjgur, Panjgur,"0",NA,flood,2017-0045,"26.74710791","64.18945877"
02-497,Pakistan,PAK,"770","2017","33060",Kech,"3",Baluchistan,Makran,Kech,Kech,"0",NA,flood,2017-0045,"26.01689152","63.0713639"
02-497,Pakistan,PAK,"770","2017","33062",Qilla Abdullah,"3",Baluchistan,Quetta,Qilla Abdullah, Qila Abdullah districts ,"0",NA,flood,2017-0045,"30.89477256","66.77069514"
02-500,Pakistan,PAK,"770","2017","33085",Dera Bugti,"3",Baluchistan,Sibi,Dera Bugti, Dera Bugti district,"0",NA,flood,2017-0243,"28.95005777","69.02743907"
02-500,Pakistan,PAK,"770","2017","33089",Kholu,"3",Baluchistan,Sibi,Kholu, Kholu districts ,"0",NA,flood,2017-0243,"29.58414612","68.82886007"
02-500,Pakistan,PAK,"770","2017","33094",Lasbela,"3",Baluchistan,Kalat,Lasbela, Lasbela district,"0",NA,flood,2017-0243,"25.8119037","66.65300284"
02-513,Peru,PER,"135","2017","33165",Chongoyape,"3",Lambayeque,Chiclayo,Chongoyape, Chongoyape,"0",NA,flood,2017-0052,"-6.623725673","-79.46507231"
02-513,Peru,PER,"135","2017","33166",Jose Leonardo Ortiz,"3",Lambayeque,Chiclayo,Jose Leonardo Ortiz, Ortiz,"0",NA,flood,2017-0052,"-6.739827869","-79.84180825"
02-513,Peru,PER,"135","2017","33167",Picsi,"3",Lambayeque,Chiclayo,Picsi, Picsi,"0",NA,flood,2017-0052,"-6.728012286","-79.69339955"
02-513,Peru,PER,"135","2017","33168",Mochumi,"3",Lambayeque,Lambayeque,Mochumi, Mochumi districts ,"0",NA,flood,2017-0052,"-6.562794437","-79.88750714"
02-513,Peru,PER,"135","2017","33170",Monsefu,"3",Lambayeque,Chiclayo,Monsefu, Monsefu,"0",NA,flood,2017-0052,"-6.865248462","-79.8574634"
02-513,Peru,PER,"135","2017","33171",Tucume,"3",Lambayeque,Lambayeque,Tucume, Tucume,"0",NA,flood,2017-0052,"-6.503204148","-79.87582729"
02-513,Peru,PER,"135","2017","33172",Reque,"3",Lambayeque,Chiclayo,Reque, Reque,"0",NA,flood,2017-0052,"-6.863773148","-79.79417878"
02-513,Peru,PER,"135","2017","33174",Jayanca,"3",Lambayeque,Lambayeque,Jayanca, Jayanca,"0",NA,flood,2017-0052,"-6.334097445","-79.80843018"
02-513,Peru,PER,"135","2017","33175",Eten,"3",Lambayeque,Chiclayo,Eten, Eten,"0",NA,flood,2017-0052,"-6.930444802","-79.81596503"
02-513,Peru,PER,"135","2017","33176",Motupe,"3",Lambayeque,Lambayeque,Motupe, Motupe,"0",NA,flood,2017-0052,"-6.168866645","-79.70797174"
02-513,Peru,PER,"135","2017","33177",Morrope,"3",Lambayeque,Lambayeque,Morrope, Morrope,"0",NA,flood,2017-0052,"-6.508446273","-80.18439884"
02-513,Peru,PER,"135","2017","33178",Illimo,"3",Lambayeque,Lambayeque,Illimo, Illimo,"0",NA,flood,2017-0052,"-6.469505766","-79.85329858"
02-513,Peru,PER,"135","2017","33179",Pacora,"3",Lambayeque,Lambayeque,Pacora, Pacora,"0",NA,flood,2017-0052,"-6.433858731","-79.8793292"
02-513,Peru,PER,"135","2017","33181",Olmos,"3",Lambayeque,Lambayeque,Olmos, Olmos,"0",NA,flood,2017-0052,"-6.064422268","-80.0729387"
02-513,Peru,PER,"135","2017","33182",Pimentel,"3",Lambayeque,Chiclayo,Pimentel, Pimentel,"0",NA,flood,2017-0052,"-6.799396334","-79.90326924"
02-513,Peru,PER,"135","2017","33183",Sana,"3",Lambayeque,Chiclayo,Sana, Zana,"0",NA,flood,2017-0052,"-6.855646621","-79.57924149"
02-566,Rwanda,RWA,"517","2018","33620",Nyakiriba,"3",Iburengerazuba,Rubavu,Nyakiriba, Nyakiliba,"0",NA,flood,2018-0104,"-1.674038568","29.35419917"
02-566,Rwanda,RWA,"517","2018","33621",Nyundo,"3",Iburengerazuba,Rubavu,Nyundo,Nyundo,"0",NA,flood,2018-0104,"-1.724484878","29.33731342"
02-566,Rwanda,RWA,"517","2018","33623",Rugerero,"3",Iburengerazuba,Rubavu,Rugerero, Rugerero,"0",NA,flood,2018-0104,"-1.691782674","29.30083066"
02-566,Rwanda,RWA,"517","2018","33625",Kanama,"3",Iburengerazuba,Rubavu,Kanama, Kanama ,"0",NA,flood,2018-0104,"-1.707310205","29.39391409"
Feb-58,Bolivia,BOL,"145","2016","33663",Apolo,"3",La Paz,Franz Tamayo,Apolo, Apolo municipality ,"0",NA,flood,2016-0246,"-14.64428602","-68.24123855"
Feb-58,Bolivia,BOL,"145","2016","33665",Achocalla,"3",La Paz,Pedro Domingo Murillo,Achocalla, Achocalla municipality ,"0",NA,flood,2016-0246,"-16.64663704","-68.13709851"
02-580,Senegal,SEN,"433","2016","33674",Mbane,"3",Saint-Louis,Dagana,Mbane,Mbane,"0",NA,flood,2016-0449,"16.25289239","-15.55821449"
02-592,South Africa,SAF,"560","2017","33715",Nqutu,"3",KwaZulu-Natal,Umzinyathi,Nqutu, Nquthu ,"0",NA,flood,2017-0217,"-28.30578564","30.7384026"
02-592,South Africa,SAF,"560","2017","33717",Umzumbe,"3",KwaZulu-Natal,Ugu,Umzumbe, uMzumbe  municipality,"0",NA,flood,2017-0217,"-30.48461512","30.33707815"
02-592,South Africa,SAF,"560","2017","33719",Umdoni,"3",KwaZulu-Natal,Ugu,Umdoni, uMdoni,"0",NA,flood,2017-0217,"-30.34633743","30.67086084"
02-592,South Africa,SAF,"560","2017","33720",UMuziwabantu,"3",KwaZulu-Natal,Ugu,UMuziwabantu, uMuziwabantu ,"0",NA,flood,2017-0217,"-30.63103669","29.87602468"
02-621,Tanzania,TAZ,"510","2016","33879",Ikwiriri,"3",Pwani,Rufiji,Ikwiriri, Ikwiriri,"0",NA,flood,2016-0060,"-7.991477237","38.99174568"
02-621,Tanzania,TAZ,"510","2016","33881",Chumbi,"3",Pwani,Rufiji,Chumbi, Chumbi,"0",NA,flood,2016-0060,"-8.159203533","39.15826902"
02-621,Tanzania,TAZ,"510","2016","33882",Umwe,"3",Pwani,Rufiji,Umwe, Umwe,"0",NA,flood,2016-0060,"-7.926155278","38.99345584"
02-621,Tanzania,TAZ,"510","2016","33883",Mwaseni,"3",Pwani,Rufiji,Mwaseni, Mwaseni,"0",NA,flood,2016-0060,"-7.870122577","38.14166921"
02-621,Tanzania,TAZ,"510","2016","33884",Ngorongo,"3",Pwani,Rufiji,Ngorongo, Ngorongo,"0",NA,flood,2016-0060,"-7.761004642","38.55835709"
02-621,Tanzania,TAZ,"510","2016","33885",Mtunda,"3",Pwani,Rufiji,Mtunda, Mtunda,"0",NA,flood,2016-0060,"-7.940502874","39.15208261"
02-621,Tanzania,TAZ,"510","2016","33886",Maparoni,"3",Pwani,Rufiji,Maparoni, Maparoni,"0",NA,flood,2016-0060,"-7.998986493","39.3576787"
02-621,Tanzania,TAZ,"510","2016","33888",Mgomba,"3",Pwani,Rufiji,Mgomba, Mgomba,"0",NA,flood,2016-0060,"-7.950995294","38.93215602"
02-621,Tanzania,TAZ,"510","2016","33889",Kiongoroni,"3",Pwani,Rufiji,Kiongoroni, Kiongoloni,"0",NA,flood,2016-0060,"-8.202243197","39.30943895"
02-621,Tanzania,TAZ,"510","2016","33890",Utete,"3",Pwani,Rufiji,Utete, Utete wards ,"0",NA,flood,2016-0060,"-7.996069126","38.58741897"
02-625,Tanzania,TAZ,"510","2018","33930",Kigamboni,"3",Dar Es Salaam,Temeke,Kigamboni, Temeke and Kigamboni Municipals,"0",NA,flood,2018-0125,"-6.82614508","39.3100547"
02-645,Uganda,UGA,"500","2016","34108",Karusandara,"3",Kasese,Busongora,Karusandara,Karusandara sub-county,"0",NA,flood,2016-0130,"0.205621668","30.21327017"
02-651,United Kingdom,UKG,"200","2017","34130",Lancaster,"3",England,Lancashire,Lancaster,Lancaster,"0",NA,flood,2017-0490,"54.07904634","-2.688291829"
02-651,United Kingdom,UKG,"200","2017","34136",Craven,"3",England,North Yorkshire,Craven, Craven ,"0",NA,flood,2017-0490,"54.08271013","-2.175925257"
Feb-68,Burkina Faso,BFO,"439","2016","34355",Ouagadougou,"3",Centre,Kadiogo,Ouagadougou,Ouagadougou city,"0",NA,flood,2016-0287,"12.37367996","-1.536979778"
Feb-68,Burkina Faso,BFO,"439","2016","34363",Tanghin-Dassouri,"3",Centre,Kadiogo,Tanghin-Dassouri, Tanghlin Dassouri Arr. ,"0",NA,flood,2016-0287,"12.3144186","-1.719202152"
Feb-73,Canada,CAN,"20","2016","34811",Chetwynd,"3",British Columbia,Peace River,Chetwynd,Chetwynd,"0",NA,flood,2016-0243,"55.67717168","-121.7977542"
Feb-73,Canada,CAN,"20","2016","34812",Dawson Creek,"3",British Columbia,Peace River,Dawson Creek, Dawson Creek,"0",NA,flood,2016-0243,"55.7551603","-120.2270809"
Feb-74,Canada,CAN,"20","2017","34897",Lake Country,"3",British Columbia,Central Okanagan,Lake Country, Lake country,"0",NA,flood,2017-0126,"50.07739313","-119.3982878"
Feb-74,Canada,CAN,"20","2017","34898",Kelowna,"3",British Columbia,Central Okanagan,Kelowna,Kelowna,"0",NA,flood,2017-0126,"49.88400292","-119.4397725"
Feb-74,Canada,CAN,"20","2017","34900",Grand Forks,"3",British Columbia,Kootenay Boundary,Grand Forks,Grand Forks,"0",NA,flood,2017-0126,"49.03018154","-118.4473391"
Feb-75,Canada,CAN,"20","2017","34918",Tecumseh,"3",Ontario,Essex,Tecumseh, Tecumseh,"0",NA,flood,2017-0471,"42.24663889","-82.91891083"
Feb-80,Chile,CHL,"155","2017","34934",Diego De Almagro,"3",Atacama,Chanaral,Diego De Almagro, Diego de Almagro,"0",NA,flood,2017-0218,"-26.18920426","-69.25764826"
06-108,Greece,GRC,"350","2015","43864",Arta,"3",Epirus And Western Macedonia,Epirus,Arta, Artis district ,"0",NA,flood,2015-0038,"39.17487507","20.93156801"
06-108,Greece,GRC,"350","2015","43868",Agrafa,"3",Thessaly And Central Greece,Central Greece,Agrafa,Aitolias Kai Akarnanias district,"0",NA,flood,2015-0038,"39.07229895","21.57810185"
06-108,Greece,GRC,"350","2015","43869",Karpenisi,"3",Thessaly And Central Greece,Central Greece,Karpenisi, Evrytanias district ,"0",NA,flood,2015-0038,"38.87496002","21.76813954"
06-108,Greece,GRC,"350","2015","43873",Ioannina,"3",Epirus And Western Macedonia,Epirus,Ioannina,Ioanninon district,"0",NA,flood,2015-0038,"39.64073796","20.88356567"
06-109,Greece,GRC,"350","2015","43875",Didymoteicho,"3",Macedonia And Thrace,East Macedonia And Thrace,Didymoteicho,Evrou district ,"0",NA,flood,2015-0384,"41.4021687","26.38247598"
06-109,Greece,GRC,"350","2015","43877",Orestiada,"3",Macedonia And Thrace,East Macedonia And Thrace,Orestiada,Evrou district ,"0",NA,flood,2015-0384,"41.5883788","26.35377194"
06-109,Greece,GRC,"350","2015","43878",Samothrace,"3",Macedonia And Thrace,East Macedonia And Thrace,Samothrace,Evrou district ,"0",NA,flood,2015-0384,"40.45429646","25.58481811"
06-109,Greece,GRC,"350","2015","43879",Alexandroupoli,"3",Macedonia And Thrace,East Macedonia And Thrace,Alexandroupoli,Evrou district ,"0",NA,flood,2015-0384,"40.92544112","25.97434066"
06-109,Greece,GRC,"350","2015","43880",Soufli,"3",Macedonia And Thrace,East Macedonia And Thrace,Soufli,Evrou district ,"0",NA,flood,2015-0384,"41.18667759","26.15482702"
06-151,Italy,ITA,"325","2015","44066",Rossano,"3",Calabria,Cosenza,Rossano, Rossano Calabro ,"0",NA,flood,2015-0598,"39.57860106","16.64029222"
06-151,Italy,ITA,"325","2015","44068",Corigliano Calabro,"3",Calabria,Cosenza,Corigliano Calabro,Corigiano Calabro,"0",NA,flood,2015-0598,"39.62865411","16.48711496"
06-152,Italy,ITA,"325","2015","44070",Tivoli,"3",Lazio,Roma,Tivoli, Tivoli city ,"0",NA,flood,2015-0465,"41.95807556","12.78588215"
06-192,Myanmar,MYA,"775","2015","44227",Kale,"3",Sagaing,Kalemyo,Kale,Kale district,"0",NA,flood,2015-0492,"23.08215538","94.15548893"
06-192,Myanmar,MYA,"775","2015","44228",Kalewa,"3",Sagaing,Kalemyo,Kalewa,Kalewa area ,"0",NA,flood,2015-0492,"23.30208198","94.53957451"
06-218,Peru,PER,"135","2015","44333",Santa Eulalia,"3",Lima,Huarochiri,Santa Eulalia, Santa Eulalia area ,"0",NA,flood,2015-0522,"-11.85813185","-76.64932472"
Jun-32,Bosnia And Herzegovina,BOS,"346","2015","44684",Prijedor,"3",Repuplika Srpska,Banja Luka,Prijedor, Prijedor district,"0",NA,flood,2015-0465,"44.94916553","16.76694748"
Jun-32,Bosnia And Herzegovina,BOS,"346","2015","44688",Novi Grad,"3",Repuplika Srpska,Banja Luka,Novi Grad, Bosanski Novi district,"0",NA,flood,2015-0465,"44.98302857","16.41507135"
Jun-32,Bosnia And Herzegovina,BOS,"346","2015","44689",Bihac,"3",Federacija Bosna I Hercegovina,Una-Sana,Bihac,Bihac city,"0",NA,flood,2015-0465,"44.73382041","15.9918643"
Jun-32,Bosnia And Herzegovina,BOS,"346","2015","44690",Bosanska Gradiska,"3",Repuplika Srpska,Banja Luka,Bosanska Gradiska, Bosanska Gradiska district ,"0",NA,flood,2015-0465,"45.07107572","17.17154227"
Jun-32,Bosnia And Herzegovina,BOS,"346","2015","44691",Dubica,"3",Repuplika Srpska,Banja Luka,Dubica,Bosanska Dubica district ,"0",NA,flood,2015-0465,"45.14257496","16.81042256"
Jun-39,Burkina Faso,BFO,"439","2015","44725",Bobo-Dioulasso,"3",Haut-Bassins,Houet,Bobo-Dioulasso, Bobo-Dioulasso city ,"0",NA,flood,2015-0346,"11.17425821","-4.282160591"
Jun-42,Cambodia,CAM,"811","2015","44755",Stueng Kaev,"3",Kampot,Kampot,Stueng Kaev, Stoeung Keo,"0",NA,flood,2015-0619,"10.78219625","104.1698328"
Jun-42,Cambodia,CAM,"811","2015","44756",Kampong Kraeng,"3",Kampot,Kampot,Kampong Kraeng, Kampong Kreng,"0",NA,flood,2015-0619,"10.65960209","104.1745594"
Jun-42,Cambodia,CAM,"811","2015","44757",Meakprang,"3",Kampot,Kampot,Meakprang,Mak Prang,"0",NA,flood,2015-0619,"10.67522769","104.134613"
Jun-42,Cambodia,CAM,"811","2015","44758",Prey Khmum,"3",Kampot,Kampot,Prey Khmum,Teuk Chhou District ,"0",NA,flood,2015-0619,"10.67546372","104.1951287"
"34",Afghanistan,AFG,"700","2002","1",Ab Kamari,"2",Badghis,Ab Kamari,NA,Ab Kamari,"0",NA,flood,2002-0242,"35.06656191","62.84711526"
"34",Afghanistan,AFG,"700","2002","284",Qala-I-Naw,"2",Badghis,Qala-I-Naw,NA,Qamla-I-Naw,"0",NA,flood,2002-0242,"34.84615123","63.04874724"
"38",Afghanistan,AFG,"700","2003","159",Kajaki,"2",Hilmand,Kajaki,NA,Kajaki,"0",NA,flood,2003-0179,"32.4422957","65.0633147"
"39",Afghanistan,AFG,"700","2003","83",Doshi,"2",Baghlan,Doshi,NA,Doshi,"0",NA,flood,2003-0256,"35.64657508","68.66757479"
"39",Afghanistan,AFG,"700","2003","188",Khost Wa Firing,"2",Baghlan,Khost Wa Firing,NA,Khost-o-Fereng,"0",NA,flood,2003-0256,"35.97871087","69.6509755"
"39",Afghanistan,AFG,"700","2003","238",Nahrin,"2",Baghlan,Nahrin,NA,Nahrin,"0",NA,flood,2003-0256,"35.9875658","69.12915394"
